,site_id,site_name,easting,northing,min_year,max_year,region,HA_NUM,G_ID,S_ID,rbd_id,wb_id,mncat_id,opcat_id,organisation,lon,lat,material,determinands,geometry,Cd_mean
0,S28888,AFON RHYD Y VALLEY U/S AFON BRAINT,245115,365418,2025,2025,S2,102,HA102G01,HA102G01S0007,,,,,NRW,-4.318236,53.163307,RIVER / RUNNING SURFACE WATER,"[{'det_id': '0106', 'site_id': 'S28888', 'det_label': 'Cadmium, Dissolved', 'det_desc': None, 'num_samples': 51, 'num_measurements': 2, 'file': 'riv_sites_det_102_106.geojson', 'mean_measurements': 0.1000000014901161}]",POINT (-4.318236 53.163307),0.1
1,NE-SSN0045,HET HILL BURN UPSTREAM OF CONF OF BREAMI,397508,615064,2025,2025,NE,21,HA021G07,HA021G07S0008,2.0,GB102021073041,3100.0,3379.0,EA,-2.04094,55.429467,RIVER / RUNNING SURFACE WATER,"[{'det_id': '0106', 'site_id': 'NE-SSN0045', 'det_label': 'Cd Filtered', 'det_desc': 'Cadmium, Dissolved', 'num_samples': 19, 'num_measurements': 1, 'file': 'riv_sites_det_21_106.geojson', 'mean_measurements': 0.02}]",POINT (-2.04094 55.429467),0.02
2,NE-SSN0301,SSN0301 TRIB OF LILBURN,402861,624059,2025,2025,NE,21,HA021G07,HA021G07S0071,2.0,GB102021072900,3100.0,3379.0,EA,-1.956266,55.51029,RIVER / RUNNING SURFACE WATER,"[{'det_id': '0106', 'site_id': 'NE-SSN0301', 'det_label': 'Cd Filtered', 'det_desc': 'Cadmium, Dissolved', 'num_samples': 5, 'num_measurements': 1, 'file': 'riv_sites_det_21_106.geojson', 'mean_measurements': 0.01}]",POINT (-1.956266 55.51029),0.01
3,NE-SSN0317,SSN0317 SHIPTONDEAN BURN,395294,639372,2025,2025,NE,21,HA021G07,HA021G07S0126,2.0,GB102021073050,3100.0,3379.0,EA,-2.076347,55.647863,RIVER / RUNNING SURFACE WATER,"[{'det_id': '0106', 'site_id': 'NE-SSN0317', 'det_label': 'Cd Filtered', 'det_desc': 'Cadmium, Dissolved', 'num_samples': 5, 'num_measurements': 1, 'file': 'riv_sites_det_21_106.geojson', 'mean_measurements': 0.01}]",POINT (-2.076347 55.647863),0.01
4,NE-RSN1327,RSN1327 BLYTH AT BRADFORD HOUSE,405716,579175,2025,2025,NE,22,HA022G01,HA022G01S0032,3.0,GB103022076930,3067.0,3366.0,EA,-1.911956,55.106957,RIVER / RUNNING SURFACE WATER,"[{'det_id': '0106', 'site_id': 'NE-RSN1327', 'det_label': 'Cd Filtered', 'det_desc': 'Cadmium, Dissolved', 'num_samples': 3, 'num_measurements': 1, 'file': 'riv_sites_det_22_106.geojson', 'mean_measurements': 0.01}]",POINT (-1.911956 55.106957),0.01
5,NE-SSN0221,SSN0221 MOUSEN BURN,413215,633336,2025,2025,NE,22,HA022G05,HA022G05S0054,3.0,GB103022076430,3067.0,3030.0,EA,-1.791887,55.593477,RIVER / RUNNING SURFACE WATER,"[{'det_id': '0106', 'site_id': 'NE-SSN0221', 'det_label': 'Cd Filtered', 'det_desc': 'Cadmium, Dissolved', 'num_samples': 6, 'num_measurements': 2, 'file': 'riv_sites_det_22_106.geojson', 'mean_measurements': 0.01}]",POINT (-1.791887 55.593477),0.01
6,NE-SSN0285,SSN0285 TRIB OF HEPSCOTT BURN,422184,583345,2025,2025,NE,22,HA022G01,HA022G01S0038,3.0,GB103022076230,3067.0,3036.0,EA,-1.653521,55.143968,RIVER / RUNNING SURFACE WATER,"[{'det_id': '0106', 'site_id': 'NE-SSN0285', 'det_label': 'Cd Filtered', 'det_desc': 'Cadmium, Dissolved', 'num_samples': 8, 'num_measurements': 1, 'file': 'riv_sites_det_22_106.geojson', 'mean_measurements': 0.01}]",POINT (-1.653521 55.143968),0.01
7,NE-SSN0861,SSN0861 STOCKING BURN,417444,613559,2025,2025,NE,22,HA022G04,HA022G04S0015,3.0,GB103022076350,3067.0,3006.0,EA,-1.726022,55.415645,RIVER / RUNNING SURFACE WATER,"[{'det_id': '0106', 'site_id': 'NE-SSN0861', 'det_label': 'Cd Filtered', 'det_desc': 'Cadmium, Dissolved', 'num_samples': 5, 'num_measurements': 1, 'file': 'riv_sites_det_22_106.geojson', 'mean_measurements': 0.01}]",POINT (-1.726022 55.415645),0.01
8,NE-SSN0925,SSN0925 SPOUT BURN,403703,603760,2025,2025,NE,22,HA022G03,HA022G03S0033,3.0,GB103022076700,3067.0,3107.0,EA,-1.943196,55.327889,RIVER / RUNNING SURFACE WATER,"[{'det_id': '0106', 'site_id': 'NE-SSN0925', 'det_label': 'Cd Filtered', 'det_desc': 'Cadmium, Dissolved', 'num_samples': 5, 'num_measurements': 1, 'file': 'riv_sites_det_22_106.geojson', 'mean_measurements': 0.01}]",POINT (-1.943196 55.327889),0.01
9,NE-SSN1565,SSN1565 HOWDEN SIKE,400301,584908,2025,2025,NE,22,HA022G02,HA022G02S0010,3.0,GB103022076990,3067.0,3515.0,EA,-1.996825,55.158504,RIVER / RUNNING SURFACE WATER,"[{'det_id': '0106', 'site_id': 'NE-SSN1565', 'det_label': 'Cd Filtered', 'det_desc': 'Cadmium, Dissolved', 'num_samples': 5, 'num_measurements': 1, 'file': 'riv_sites_det_22_106.geojson', 'mean_measurements': 0.01}]",POINT (-1.996825 55.158504),0.01
10,NE-SSN1629,SSN1629 WESTWOOD BURN,420345,604099,2025,2025,NE,22,HA022G03,HA022G03S0048,3.0,GB103022076693,3067.0,3105.0,EA,-1.680882,55.330532,RIVER / RUNNING SURFACE WATER,"[{'det_id': '0106', 'site_id': 'NE-SSN1629', 'det_label': 'Cd Filtered', 'det_desc': 'Cadmium, Dissolved', 'num_samples': 5, 'num_measurements': 1, 'file': 'riv_sites_det_22_106.geojson', 'mean_measurements': 0.01}]",POINT (-1.680882 55.330532),0.01
11,NE-43200440,WEST ALLEN AT BLACKETT BRIDGE,378008,554061,2025,2025,NE,23,HA023G01,HA023G01S0061,3.0,GB103023074700,3103.0,3005.0,EA,-2.344304,54.880823,RIVER / RUNNING SURFACE WATER,"[{'det_id': '0106', 'site_id': 'NE-43200440', 'det_label': 'Cd Filtered', 'det_desc': 'Cadmium, Dissolved', 'num_samples': 4, 'num_measurements': 4, 'file': 'riv_sites_det_23_106.geojson', 'mean_measurements': 1.775}]",POINT (-2.344304 54.880823),1.8
12,NE-RSN1339,RSN1339 KNAG BURN - GRINDON LOUGH,380389,567877,2025,2025,NE,23,HA023G01,HA023G01S0116,3.0,GB103023075540,3103.0,3417.0,EA,-2.308145,55.005073,RIVER / RUNNING SURFACE WATER,"[{'det_id': '0106', 'site_id': 'NE-RSN1339', 'det_label': 'Cd Filtered', 'det_desc': 'Cadmium, Dissolved', 'num_samples': 9, 'num_measurements': 3, 'file': 'riv_sites_det_23_106.geojson', 'mean_measurements': 0.012}]",POINT (-2.308145 55.005073),0.012000000000000002
13,NE-SSN0162,MILL STREAM AT RYE HILL - NORTH TYNE,389424,570904,2025,2025,NE,23,HA023G04,HA023G04S0001,3.0,GB103023075802,3103.0,3333.0,EA,-2.167003,55.03255,RIVER / RUNNING SURFACE WATER,"[{'det_id': '0106', 'site_id': 'NE-SSN0162', 'det_label': 'Cd Filtered', 'det_desc': 'Cadmium, Dissolved', 'num_samples': 18, 'num_measurements': 1, 'file': 'riv_sites_det_23_106.geojson', 'mean_measurements': 0.01}]",POINT (-2.167003 55.03255),0.01
14,NE-SSN0189,SHEDDING SIKE AT SHEDDING KNOWE - BELLIN,370016,592652,2025,2025,NE,23,HA023G04,HA023G04S0161,3.0,GB103023075110,3103.0,3334.0,EA,-2.472936,55.227172,RIVER / RUNNING SURFACE WATER,"[{'det_id': '0106', 'site_id': 'NE-SSN0189', 'det_label': 'Cd Filtered', 'det_desc': 'Cadmium, Dissolved', 'num_samples': 19, 'num_measurements': 1, 'file': 'riv_sites_det_23_106.geojson', 'mean_measurements': 0.017}]",POINT (-2.472936 55.227172),0.017
15,NE-SSN0829,SSN0829 MILL BURN,395340,592274,2025,2025,NE,23,HA023G04,HA023G04S0154,3.0,GB103023075140,3103.0,3372.0,EA,-2.074808,55.22467,RIVER / RUNNING SURFACE WATER,"[{'det_id': '0106', 'site_id': 'NE-SSN0829', 'det_label': 'Cd Filtered', 'det_desc': 'Cadmium, Dissolved', 'num_samples': 4, 'num_measurements': 1, 'file': 'riv_sites_det_23_106.geojson', 'mean_measurements': 0.01}]",POINT (-2.074808 55.22467),0.01
16,NE-SSN0866,SSN0866 DARN GILL,377208,537260,2025,2025,NE,23,HA023G01,HA023G01S0006,3.0,GB103023075380,3103.0,3418.0,EA,-2.355443,54.729809,RIVER / RUNNING SURFACE WATER,"[{'det_id': '0106', 'site_id': 'NE-SSN0866', 'det_label': 'Cd Filtered', 'det_desc': 'Cadmium, Dissolved', 'num_samples': 5, 'num_measurements': 1, 'file': 'riv_sites_det_23_106.geojson', 'mean_measurements': 0.021}]",POINT (-2.355443 54.729809),0.021
17,NE-SSN0893,SSN0893 BROOMLEY BURN,371726,584894,2025,2025,NE,23,HA023G04,HA023G04S0094,3.0,GB103023074940,3103.0,3334.0,EA,-2.445276,55.157564,RIVER / RUNNING SURFACE WATER,"[{'det_id': '0106', 'site_id': 'NE-SSN0893', 'det_label': 'Cd Filtered', 'det_desc': 'Cadmium, Dissolved', 'num_samples': 5, 'num_measurements': 1, 'file': 'riv_sites_det_23_106.geojson', 'mean_measurements': 0.019}]",POINT (-2.445276 55.157564),0.019
18,NE-SSN0930,SSN0930 TRIB OF DEVILS WATER,395700,562497,2025,2025,NE,23,HA023G03,HA023G03S0023,3.0,GB103023075631,3103.0,3480.0,EA,-2.068687,54.9571,RIVER / RUNNING SURFACE WATER,"[{'det_id': '0106', 'site_id': 'NE-SSN0930', 'det_label': 'Cd Filtered', 'det_desc': 'Cadmium, Dissolved', 'num_samples': 7, 'num_measurements': 1, 'file': 'riv_sites_det_23_106.geojson', 'mean_measurements': 0.081}]",POINT (-2.068687 54.9571),0.081
19,NE-SSN1341,BELL KNOWNE CONF. REDE,388368,585329,2025,2025,NE,23,HA023G04,HA023G04S0089,3.0,GB103023075320,3103.0,3372.0,EA,-2.184119,55.162148,RIVER / RUNNING SURFACE WATER,"[{'det_id': '0106', 'site_id': 'NE-SSN1341', 'det_label': 'Cd Filtered', 'det_desc': 'Cadmium, Dissolved', 'num_samples': 21, 'num_measurements': 1, 'file': 'riv_sites_det_23_106.geojson', 'mean_measurements': 0.29}]",POINT (-2.184119 55.162148),0.29
20,NE-SSN1378,THORNHOPE BURN AT HIGH THORNHOPE,368014,550067,2025,2025,NE,23,HA023G01,HA023G01S0041,3.0,GB103023075531,3103.0,3418.0,EA,-2.499621,54.844391,RIVER / RUNNING SURFACE WATER,"[{'det_id': '0106', 'site_id': 'NE-SSN1378', 'det_label': 'Cd Filtered', 'det_desc': 'Cadmium, Dissolved', 'num_samples': 17, 'num_measurements': 1, 'file': 'riv_sites_det_23_106.geojson', 'mean_measurements': 0.01}]",POINT (-2.499621 54.844391),0.01
21,NE-SSN0802,SSN0802 PARK BURN,392271,538442,2025,2025,NE,24,HA024G01,HA024G01S0087,3.0,GB103024077461,3110.0,3523.0,EA,-2.121578,54.740892,RIVER / RUNNING SURFACE WATER,"[{'det_id': '0106', 'site_id': 'NE-SSN0802', 'det_label': 'Cd Filtered', 'det_desc': 'Cadmium, Dissolved', 'num_samples': 5, 'num_measurements': 1, 'file': 'riv_sites_det_24_106.geojson', 'mean_measurements': 0.01}]",POINT (-2.121578 54.740892),0.01
22,NE-RSN1312,RSN1312 ELLER BECK AT A172,452198,507767,2025,2025,NE,25,HA025G02,HA025G02S0017,3.0,GB103025071870,3093.0,3252.0,EA,-1.19627,54.462619,RIVER / RUNNING SURFACE WATER,"[{'det_id': '0106', 'site_id': 'NE-RSN1312', 'det_label': 'Cd Filtered', 'det_desc': 'Cadmium, Dissolved', 'num_samples': 2, 'num_measurements': 1, 'file': 'riv_sites_det_25_106.geojson', 'mean_measurements': 0.013}]",POINT (-1.19627 54.462619),0.013999999999999999
23,NE-SSN0013,ASH GILL AT KIRKLEATHAM WALLED GARDEN,459506,521726,2025,2025,NE,25,HA025G03,HA025G03S0026,3.0,GB103025072320,3093.0,3445.0,EA,-1.080734,54.587249,RIVER / RUNNING SURFACE WATER,"[{'det_id': '0106', 'site_id': 'NE-SSN0013', 'det_label': 'Cd Filtered', 'det_desc': 'Cadmium, Dissolved', 'num_samples': 27, 'num_measurements': 1, 'file': 'riv_sites_det_25_106.geojson', 'mean_measurements': 0.01}]",POINT (-1.080734 54.587249),0.01
24,NE-SSN0185,MOUSEY BURN AT BLACK HURWORTH FARM - SKE,441233,534539,2025,2025,NE,25,HA025G01,HA025G01S0081,3.0,GB103025076070,3093.0,3406.0,EA,-1.361665,54.704202,RIVER / RUNNING SURFACE WATER,"[{'det_id': '0106', 'site_id': 'NE-SSN0185', 'det_label': 'Cd Filtered', 'det_desc': 'Cadmium, Dissolved', 'num_samples': 18, 'num_measurements': 1, 'file': 'riv_sites_det_25_106.geojson', 'mean_measurements': 0.01}]",POINT (-1.361665 54.704202),0.01
25,NE-SSN0306,SSN0306 SLEIGHTHOLME,393940,508961,2025,2025,NE,25,HA025G01,HA025G01S0037,3.0,GB103025072090,3093.0,3447.0,EA,-2.095033,54.475979,RIVER / RUNNING SURFACE WATER,"[{'det_id': '0106', 'site_id': 'NE-SSN0306', 'det_label': 'Cd Filtered', 'det_desc': 'Cadmium, Dissolved', 'num_samples': 3, 'num_measurements': 1, 'file': 'riv_sites_det_25_106.geojson', 'mean_measurements': 0.041}]",POINT (-2.095033 54.475979),0.041
26,NE-SSN0825,SSN0825 BOLAM,420434,522246,2025,2025,NE,25,HA025G01,HA025G01S0059,3.0,GB103025072260,3093.0,3406.0,EA,-1.685272,54.594999,RIVER / RUNNING SURFACE WATER,"[{'det_id': '0106', 'site_id': 'NE-SSN0825', 'det_label': 'Cd Filtered', 'det_desc': 'Cadmium, Dissolved', 'num_samples': 4, 'num_measurements': 1, 'file': 'riv_sites_det_25_106.geojson', 'mean_measurements': 0.015}]",POINT (-1.685272 54.594999),0.015
27,NE-SSN0889,SSN0889 HOWE GILL,402982,522311,2025,2025,NE,25,HA025G01,HA025G01S0069,3.0,GB103025072310,3093.0,3447.0,EA,-1.955372,54.595982,RIVER / RUNNING SURFACE WATER,"[{'det_id': '0106', 'site_id': 'NE-SSN0889', 'det_label': 'Cd Filtered', 'det_desc': 'Cadmium, Dissolved', 'num_samples': 5, 'num_measurements': 1, 'file': 'riv_sites_det_25_106.geojson', 'mean_measurements': 0.013}]",POINT (-1.955372 54.595982),0.013
28,NE-SSN0946,SSN0946 BLING GILL,385499,521344,2025,2025,NE,25,HA025G05,HA025G05S0054,3.0,GB103025072352,3093.0,3448.0,EA,-2.225905,54.587089,RIVER / RUNNING SURFACE WATER,"[{'det_id': '0106', 'site_id': 'NE-SSN0946', 'det_label': 'Cd Filtered', 'det_desc': 'Cadmium, Dissolved', 'num_samples': 5, 'num_measurements': 1, 'file': 'riv_sites_det_25_106.geojson', 'mean_measurements': 0.017}]",POINT (-2.225905 54.587089),0.017
29,NE-RSN1396,RSN1396 MILL LANE WEST DRAIN US BROUGH,493917,427564,2025,2025,NE,26,HA026G02,HA026G02S0032,4.0,,3039.0,3274.0,EA,-0.577712,53.736037,RIVER / RUNNING SURFACE WATER,"[{'det_id': '0106', 'site_id': 'NE-RSN1396', 'det_label': 'Cd Filtered', 'det_desc': 'Cadmium, Dissolved', 'num_samples': 6, 'num_measurements': 5, 'file': 'riv_sites_det_26_106.geojson', 'mean_measurements': 0.1102}]",POINT (-0.577712 53.736037),0.14183333333333334
30,NE-SSN0001,SKELFLEET DRAIN AT HOTHAM COMMON,486535,433227,2025,2025,NE,26,HA026G02,HA026G02S0038,4.0,GB104026066690,3039.0,3191.0,EA,-0.688004,53.788198,RIVER / RUNNING SURFACE WATER,"[{'det_id': '0106', 'site_id': 'NE-SSN0001', 'det_label': 'Cd Filtered', 'det_desc': 'Cadmium, Dissolved', 'num_samples': 27, 'num_measurements': 1, 'file': 'riv_sites_det_26_106.geojson', 'mean_measurements': 0.012}]",POINT (-0.6880039999999999 53.788198),0.012
31,NE-SSN0849,SSN0849 KIRBY DRAIN,506058,448460,2025,2025,NE,26,HA026G01,HA026G01S0015,4.0,GB104026067211,3039.0,3274.0,EA,-0.386536,53.921449,RIVER / RUNNING SURFACE WATER,"[{'det_id': '0106', 'site_id': 'NE-SSN0849', 'det_label': 'Cd Filtered', 'det_desc': 'Cadmium, Dissolved', 'num_samples': 5, 'num_measurements': 1, 'file': 'riv_sites_det_26_106.geojson', 'mean_measurements': 0.01}]",POINT (-0.386536 53.921449),0.01
32,NE-49800260,NIDD AT KNARESBOROUGH VIADUCT,434757,457063,2025,2025,NE,27,HA027G12,HA027G12S0004,4.0,GB104027068297,3088.0,3308.0,EA,-1.471162,54.008439,RIVER / RUNNING SURFACE WATER,"[{'det_id': '0106', 'site_id': 'NE-49800260', 'det_label': 'Cd Filtered', 'det_desc': 'Cadmium, Dissolved', 'num_samples': 6, 'num_measurements': 6, 'file': 'riv_sites_det_27_106.geojson', 'mean_measurements': 0.0941666666666666}]",POINT (-1.471162 54.008439),0.09499999999999999
33,NE-49800261,EAGLE LEVEL D/S PONDS,415147,465137,2025,2025,NE,27,HA027G12,HA027G12S0017,4.0,GB104027068295,3088.0,3497.0,EA,-1.769973,54.081946,RIVER / RUNNING SURFACE WATER,"[{'det_id': '0106', 'site_id': 'NE-49800261', 'det_label': 'Cd Filtered', 'det_desc': 'Cadmium, Dissolved', 'num_samples': 2, 'num_measurements': 2, 'file': 'riv_sites_det_27_106.geojson', 'mean_measurements': 0.19}]",POINT (-1.769973 54.081946),0.1775
34,NE-49905199,SHAW BECK AT HELWITH,407261,502869,2025,2025,NE,27,HA027G19,HA027G19S0069,4.0,GB104027069140,3088.0,3503.0,EA,-1.889613,54.421219,RIVER / RUNNING SURFACE WATER,"[{'det_id': '0106', 'site_id': 'NE-49905199', 'det_label': 'Cd Filtered', 'det_desc': 'Cadmium, Dissolved', 'num_samples': 3, 'num_measurements': 3, 'file': 'riv_sites_det_27_106.geojson', 'mean_measurements': 1.1666666666666667}]",POINT (-1.889613 54.421219),1.1666666666666667
35,NE-49905245,PRYS BECK,406591,502512,2025,2025,NE,27,HA027G19,HA027G19S0069,4.0,GB104027069140,3088.0,3503.0,EA,-1.899946,54.418019,RIVER / RUNNING SURFACE WATER,"[{'det_id': '0106', 'site_id': 'NE-49905245', 'det_label': 'Cd Filtered', 'det_desc': 'Cadmium, Dissolved', 'num_samples': 1, 'num_measurements': 1, 'file': 'riv_sites_det_27_106.geojson', 'mean_measurements': 1.2}]",POINT (-1.899946 54.418019),1.2
36,NE-49905246,SHAW BECK BELOW FOOTBRIDGE D/S PRYS BECK,406704,502568,2025,2025,NE,27,HA027G19,HA027G19S0069,4.0,GB104027069140,3088.0,3503.0,EA,-1.898204,54.418521,RIVER / RUNNING SURFACE WATER,"[{'det_id': '0106', 'site_id': 'NE-49905246', 'det_label': 'Cd Filtered', 'det_desc': 'Cadmium, Dissolved', 'num_samples': 5, 'num_measurements': 5, 'file': 'riv_sites_det_27_106.geojson', 'mean_measurements': 0.848}]",POINT (-1.898204 54.418521),0.8300000000000001
37,NE-49905247,HOLGATE BECK U/S SHAW BECK CONFLUENCE,407386,502874,2025,2025,NE,27,HA027G19,HA027G19S0071,4.0,GB104027069140,3088.0,3503.0,EA,-1.887687,54.421262,RIVER / RUNNING SURFACE WATER,"[{'det_id': '0106', 'site_id': 'NE-49905247', 'det_label': 'Cd Filtered', 'det_desc': 'Cadmium, Dissolved', 'num_samples': 4, 'num_measurements': 4, 'file': 'riv_sites_det_27_106.geojson', 'mean_measurements': 0.1}]",POINT (-1.887687 54.421262),0.09999999999999999
38,NE-49905248,MARSKE BECK D/S HOLGATE/SHAW BECK CONF,407455,502845,2025,2025,NE,27,HA027G19,HA027G19S0071,4.0,GB104027069140,3088.0,3503.0,EA,-1.886624,54.421,RIVER / RUNNING SURFACE WATER,"[{'det_id': '0106', 'site_id': 'NE-49905248', 'det_label': 'Cd Filtered', 'det_desc': 'Cadmium, Dissolved', 'num_samples': 5, 'num_measurements': 5, 'file': 'riv_sites_det_27_106.geojson', 'mean_measurements': 0.178}]",POINT (-1.886624 54.421),0.1557142857142857
39,NE-49905249,SPRING OPPOSITE HELWITH BANK,408045,502809,2025,2025,NE,27,HA027G19,HA027G19S0071,4.0,GB104027069140,3088.0,3503.0,EA,-1.877533,54.420668,RIVER / RUNNING SURFACE WATER,"[{'det_id': '0106', 'site_id': 'NE-49905249', 'det_label': 'Cd Filtered', 'det_desc': 'Cadmium, Dissolved', 'num_samples': 3, 'num_measurements': 3, 'file': 'riv_sites_det_27_106.geojson', 'mean_measurements': 1.4666666666666668}]",POINT (-1.877533 54.420668),1.4666666666666668
40,NE-49905250,MARSKE BECK D/S HELWITH BANK SPRING,408081,502820,2025,2025,NE,27,HA027G19,HA027G19S0071,4.0,GB104027069140,3088.0,3503.0,EA,-1.876977,54.420766,RIVER / RUNNING SURFACE WATER,"[{'det_id': '0106', 'site_id': 'NE-49905250', 'det_label': 'Cd Filtered', 'det_desc': 'Cadmium, Dissolved', 'num_samples': 5, 'num_measurements': 5, 'file': 'riv_sites_det_27_106.geojson', 'mean_measurements': 0.404}]",POINT (-1.876977 54.420766),0.33
41,NE-RSN1332,RSN1332 CALDER D/S SPEN BECK,423247,420556,2025,2025,NE,27,HA027G08,HA027G08S0035,4.0,GB104027062631,3001.0,3268.0,EA,-1.649528,53.680967,RIVER / RUNNING SURFACE WATER,"[{'det_id': '0106', 'site_id': 'NE-RSN1332', 'det_label': 'Cd Filtered', 'det_desc': 'Cadmium, Dissolved', 'num_samples': 2, 'num_measurements': 1, 'file': 'riv_sites_det_27_106.geojson', 'mean_measurements': 0.035}]",POINT (-1.649528 53.680967),0.02825
42,NE-RSN1336,RSN1336 URE AT FISH POND PLANTATION,416133,486307,2025,2025,NE,27,HA027G05,HA027G05S0096,4.0,GB104027069464,3088.0,3505.0,EA,-1.753777,54.272174,RIVER / RUNNING SURFACE WATER,"[{'det_id': '0106', 'site_id': 'NE-RSN1336', 'det_label': 'Cd Filtered', 'det_desc': 'Cadmium, Dissolved', 'num_samples': 3, 'num_measurements': 1, 'file': 'riv_sites_det_27_106.geojson', 'mean_measurements': 0.049}]",POINT (-1.753777 54.272174),0.056999999999999995
43,NE-RSN1340,RSN1340 THORNTON BECK AT ELLER'S WOOD,485340,484452,2025,2025,NE,27,HA027G06,HA027G06S0015,4.0,GB104027067950,3027.0,3489.0,EA,-0.691785,54.248663,RIVER / RUNNING SURFACE WATER,"[{'det_id': '0106', 'site_id': 'NE-RSN1340', 'det_label': 'Cd Filtered', 'det_desc': 'Cadmium, Dissolved', 'num_samples': 6, 'num_measurements': 5, 'file': 'riv_sites_det_27_106.geojson', 'mean_measurements': 0.01}]",POINT (-0.691785 54.248663),0.01
44,NE-RSN1348,RSN1348 RIVER DON DS MILLHOUSE GREEN,422777,403201,2025,2025,NE,27,HA027G02,HA027G02S0026,4.0,GB104027057500,3029.0,3490.0,EA,-1.657902,53.525002,RIVER / RUNNING SURFACE WATER,"[{'det_id': '0106', 'site_id': 'NE-RSN1348', 'det_label': 'Cd Filtered', 'det_desc': 'Cadmium, Dissolved', 'num_samples': 6, 'num_measurements': 5, 'file': 'riv_sites_det_27_106.geojson', 'mean_measurements': 0.0402}]",POINT (-1.657902 53.525002),0.035833333333333335
45,NE-RSN1356,RSN1356 RIVER DEARNE DS LOW BARUGH,432668,408947,2025,2025,NE,27,HA027G07,HA027G07S0003,4.0,GB104027063171,3029.0,3125.0,EA,-1.508115,53.576128,RIVER / RUNNING SURFACE WATER,"[{'det_id': '0106', 'site_id': 'NE-RSN1356', 'det_label': 'Cd Filtered', 'det_desc': 'Cadmium, Dissolved', 'num_samples': 6, 'num_measurements': 5, 'file': 'riv_sites_det_27_106.geojson', 'mean_measurements': 0.0124}]",POINT (-1.508115 53.576128),0.012499999999999999
46,NE-RSN1368,RSN1368 FOSS NEAR HUNTINGTON,461623,456116,2025,2025,NE,27,HA027G11,HA027G11S0015,4.0,GB104027063520,3088.0,3190.0,EA,-1.061474,53.997429,RIVER / RUNNING SURFACE WATER,"[{'det_id': '0106', 'site_id': 'NE-RSN1368', 'det_label': 'Cd Filtered', 'det_desc': 'Cadmium, Dissolved', 'num_samples': 6, 'num_measurements': 5, 'file': 'riv_sites_det_27_106.geojson', 'mean_measurements': 0.0142}]",POINT (-1.061474 53.997429),0.016999999999999998
47,NE-SSN0021,WEST HALL BECK NEAR NESFIELD - WEST HALL,408818,450442,2025,2025,NE,27,HA027G10,HA027G10S0039,4.0,GB104027064257,3115.0,3318.0,EA,-1.867132,53.950019,RIVER / RUNNING SURFACE WATER,"[{'det_id': '0106', 'site_id': 'NE-SSN0021', 'det_label': 'Cd Filtered', 'det_desc': 'Cadmium, Dissolved', 'num_samples': 18, 'num_measurements': 1, 'file': 'riv_sites_det_27_106.geojson', 'mean_measurements': 0.027}]",POINT (-1.867132 53.950019),0.027
48,NE-SSN0037,BLOWELL DRAIN AT SOUTH MOOR - BLOWELL DR,454292,421552,2025,2025,NE,27,HA027G16,HA027G16S0012,4.0,GB104027063390,3029.0,3272.0,EA,-1.17938,53.687627,RIVER / RUNNING SURFACE WATER,"[{'det_id': '0106', 'site_id': 'NE-SSN0037', 'det_label': 'Cd Filtered', 'det_desc': 'Cadmium, Dissolved', 'num_samples': 15, 'num_measurements': 1, 'file': 'riv_sites_det_27_106.geojson', 'mean_measurements': 0.05}]",POINT (-1.17938 53.687627),0.05
49,NE-SSN0065,SSN0065 BRICK DRAIN TRIB OF RIVER AIRE,462306,425732,2025,2025,NE,27,HA027G03,HA027G03S0001,4.0,GB104027062760,3001.0,3265.0,EA,-1.057208,53.7243,RIVER / RUNNING SURFACE WATER,"[{'det_id': '0106', 'site_id': 'NE-SSN0065', 'det_label': 'Cd Filtered', 'det_desc': 'Cadmium, Dissolved', 'num_samples': 9, 'num_measurements': 1, 'file': 'riv_sites_det_27_106.geojson', 'mean_measurements': 0.016}]",POINT (-1.057208 53.7243),0.016
50,NE-SSN0069,SSN0069 TOWN BROOK TRIB OF RIVER DON,418625,403046,2025,2025,NE,27,HA027G02,HA027G02S0026,4.0,GB104027057500,3029.0,3490.0,EA,-1.720539,53.523771,RIVER / RUNNING SURFACE WATER,"[{'det_id': '0106', 'site_id': 'NE-SSN0069', 'det_label': 'Cd Filtered', 'det_desc': 'Cadmium, Dissolved', 'num_samples': 5, 'num_measurements': 1, 'file': 'riv_sites_det_27_106.geojson', 'mean_measurements': 0.024}]",POINT (-1.720539 53.523771),0.024
51,NE-SSN0165,LODGE BECK TRIB OF PARK BECK - PARK BECK,434326,450930,2025,2025,NE,27,HA027G12,HA027G12S0003,4.0,GB104027063700,3088.0,3308.0,EA,-1.478427,53.953348,RIVER / RUNNING SURFACE WATER,"[{'det_id': '0106', 'site_id': 'NE-SSN0165', 'det_label': 'Cd Filtered', 'det_desc': 'Cadmium, Dissolved', 'num_samples': 18, 'num_measurements': 1, 'file': 'riv_sites_det_27_106.geojson', 'mean_measurements': 0.013}]",POINT (-1.478427 53.953348),0.013
52,NE-SSN0193,HACKING DRAIN TRIB OF THE BECK/BIELBY BE,472327,443238,2025,2025,NE,27,HA027G09,HA027G09S0009,4.0,GB104027063440,3027.0,3271.0,EA,-0.901263,53.880324,RIVER / RUNNING SURFACE WATER,"[{'det_id': '0106', 'site_id': 'NE-SSN0193', 'det_label': 'Cd Filtered', 'det_desc': 'Cadmium, Dissolved', 'num_samples': 19, 'num_measurements': 1, 'file': 'riv_sites_det_27_106.geojson', 'mean_measurements': 0.01}]",POINT (-0.901263 53.880324),0.01
53,NE-SSN0209,YOULTHORPE BECK TRIB OF GOWTHORPE BECK,476102,454067,2025,2025,NE,27,HA027G09,HA027G09S0029,4.0,GB104027063490,3027.0,3271.0,EA,-0.84116,53.977092,RIVER / RUNNING SURFACE WATER,"[{'det_id': '0106', 'site_id': 'NE-SSN0209', 'det_label': 'Cd Filtered', 'det_desc': 'Cadmium, Dissolved', 'num_samples': 22, 'num_measurements': 1, 'file': 'riv_sites_det_27_106.geojson', 'mean_measurements': 0.01}]",POINT (-0.84116 53.977092),0.01
54,NE-SSN0213,SSN0213 TWATTLETON BECK NR WHITE HORSE,451271,480496,2025,2025,NE,27,HA027G13,HA027G13S0009,4.0,GB104027068790,3088.0,3283.0,EA,-1.215246,54.217649,RIVER / RUNNING SURFACE WATER,"[{'det_id': '0106', 'site_id': 'NE-SSN0213', 'det_label': 'Cd Filtered', 'det_desc': 'Cadmium, Dissolved', 'num_samples': 5, 'num_measurements': 1, 'file': 'riv_sites_det_27_106.geojson', 'mean_measurements': 0.01}]",POINT (-1.215246 54.217649),0.01
55,NE-SSN0249,SSN0249 APPLETON DRAIN TRIB OF WISKE,438769,504782,2025,2025,NE,27,HA027G13,HA027G13S0067,4.0,GB104027069550,3088.0,3541.0,EA,-1.40381,54.436993,RIVER / RUNNING SURFACE WATER,"[{'det_id': '0106', 'site_id': 'NE-SSN0249', 'det_label': 'Cd Filtered', 'det_desc': 'Cadmium, Dissolved', 'num_samples': 5, 'num_measurements': 1, 'file': 'riv_sites_det_27_106.geojson', 'mean_measurements': 0.018}]",POINT (-1.40381 54.436993),0.018
56,NE-SSN0257,SSN0257 BALKHOLME DRAIN,478435,426523,2025,2025,NE,27,HA027G17,HA027G17S0011,4.0,,3039.0,3191.0,EA,-0.812619,53.729237,RIVER / RUNNING SURFACE WATER,"[{'det_id': '0106', 'site_id': 'NE-SSN0257', 'det_label': 'Cd Filtered', 'det_desc': 'Cadmium, Dissolved', 'num_samples': 6, 'num_measurements': 1, 'file': 'riv_sites_det_27_106.geojson', 'mean_measurements': 0.01}]",POINT (-0.812619 53.729237),0.01
57,NE-SSN0261,SSN0261 CLOUGH DIKE TRIB OF DAKIN BROOK,423407,406273,2025,2025,NE,27,HA027G07,HA027G07S0003,4.0,GB104027063150,3029.0,3125.0,EA,-1.648172,53.552586,RIVER / RUNNING SURFACE WATER,"[{'det_id': '0106', 'site_id': 'NE-SSN0261', 'det_label': 'Cd Filtered', 'det_desc': 'Cadmium, Dissolved', 'num_samples': 5, 'num_measurements': 1, 'file': 'riv_sites_det_27_106.geojson', 'mean_measurements': 0.013}]",POINT (-1.648172 53.552586),0.013
58,NE-SSN0277,SSN0277 UNNAMED DRAIN AT BROUGHTON,396164,451647,2025,2025,NE,27,HA027G04,HA027G04S0033,4.0,GB104027063033,3001.0,3484.0,EA,-2.059956,53.960907,RIVER / RUNNING SURFACE WATER,"[{'det_id': '0106', 'site_id': 'NE-SSN0277', 'det_label': 'Cd Filtered', 'det_desc': 'Cadmium, Dissolved', 'num_samples': 6, 'num_measurements': 1, 'file': 'riv_sites_det_27_106.geojson', 'mean_measurements': 0.022}]",POINT (-2.059956 53.960907),0.022
59,NE-SSN0289,SSN0289 BROADMIRE'S DRAIN D/S BROADMIRE,482103,481914,2025,2025,NE,27,HA027G06,HA027G06S0015,4.0,GB104027068460,3027.0,3489.0,EA,-0.742143,54.226388,RIVER / RUNNING SURFACE WATER,"[{'det_id': '0106', 'site_id': 'NE-SSN0289', 'det_label': 'Cd Filtered', 'det_desc': 'Cadmium, Dissolved', 'num_samples': 4, 'num_measurements': 1, 'file': 'riv_sites_det_27_106.geojson', 'mean_measurements': 0.01}]",POINT (-0.742143 54.226388),0.01
60,NE-SSN0293,SSN0293 BARRS DRAIN TRIB OF RIVER WENT,447895,415552,2025,2025,NE,27,HA027G16,HA027G16S0009,4.0,GB104027063360,3029.0,3272.0,EA,-1.277158,53.634326,RIVER / RUNNING SURFACE WATER,"[{'det_id': '0106', 'site_id': 'NE-SSN0293', 'det_label': 'Cd Filtered', 'det_desc': 'Cadmium, Dissolved', 'num_samples': 5, 'num_measurements': 1, 'file': 'riv_sites_det_27_106.geojson', 'mean_measurements': 0.01}]",POINT (-1.277158 53.634326),0.01
61,NE-SSN0305,SSN0305 INCH ROYD TRIB OF HAGUE HALL BK,445953,412655,2025,2025,NE,27,HA027G16,HA027G16S0005,4.0,GB104027063240,3029.0,3272.0,EA,-1.30695,53.608461,RIVER / RUNNING SURFACE WATER,"[{'det_id': '0106', 'site_id': 'NE-SSN0305', 'det_label': 'Cd Filtered', 'det_desc': 'Cadmium, Dissolved', 'num_samples': 5, 'num_measurements': 1, 'file': 'riv_sites_det_27_106.geojson', 'mean_measurements': 0.011}]",POINT (-1.30695 53.608461),0.011
62,NE-SSN0309,SSN0309 THORNTON WATLASS DRAIN,424606,486363,2025,2025,NE,27,HA027G13,HA027G13S0027,4.0,GB104027068841,3088.0,3317.0,EA,-1.623669,54.272342,RIVER / RUNNING SURFACE WATER,"[{'det_id': '0106', 'site_id': 'NE-SSN0309', 'det_label': 'Cd Filtered', 'det_desc': 'Cadmium, Dissolved', 'num_samples': 7, 'num_measurements': 1, 'file': 'riv_sites_det_27_106.geojson', 'mean_measurements': 0.01}]",POINT (-1.623669 54.272342),0.01
63,NE-SSN0801,SSN0801 TRIB OF KELD SPRING,468071,483740,2025,2025,NE,27,HA027G14,HA027G14S0018,4.0,GB104027068210,3027.0,3387.0,EA,-0.956919,54.244848,RIVER / RUNNING SURFACE WATER,"[{'det_id': '0106', 'site_id': 'NE-SSN0801', 'det_label': 'Cd Filtered', 'det_desc': 'Cadmium, Dissolved', 'num_samples': 5, 'num_measurements': 1, 'file': 'riv_sites_det_27_106.geojson', 'mean_measurements': 0.01}]",POINT (-0.956919 54.244848),0.01
64,NE-SSN0813,SSN0813 AT THISTLE GROVE,485818,507639,2025,2025,NE,27,HA027G15,HA027G15S0051,4.0,GB104027068150,3037.0,3177.0,EA,-0.67778,54.456911,RIVER / RUNNING SURFACE WATER,"[{'det_id': '0106', 'site_id': 'NE-SSN0813', 'det_label': 'Cd Filtered', 'det_desc': 'Cadmium, Dissolved', 'num_samples': 4, 'num_measurements': 1, 'file': 'riv_sites_det_27_106.geojson', 'mean_measurements': 0.01}]",POINT (-0.67778 54.456911),0.01
65,NE-SSN0817,SSN0817 OAKS NOOK BECK TRIB OF SILKSTON,428466,405145,2025,2025,NE,27,HA027G07,HA027G07S0003,4.0,GB104027057560,3029.0,3125.0,EA,-1.571916,53.542199,RIVER / RUNNING SURFACE WATER,"[{'det_id': '0106', 'site_id': 'NE-SSN0817', 'det_label': 'Cd Filtered', 'det_desc': 'Cadmium, Dissolved', 'num_samples': 5, 'num_measurements': 1, 'file': 'riv_sites_det_27_106.geojson', 'mean_measurements': 0.01}]",POINT (-1.571916 53.542199),0.01
66,NE-SSN0818,SSN0818 SKEB SKEUGH D/S KELD,389297,500631,2025,2025,NE,27,HA027G19,HA027G19S0046,4.0,GB104027069030,3088.0,3503.0,EA,-2.166377,54.401041,RIVER / RUNNING SURFACE WATER,"[{'det_id': '0106', 'site_id': 'NE-SSN0818', 'det_label': 'Cd Filtered', 'det_desc': 'Cadmium, Dissolved', 'num_samples': 4, 'num_measurements': 1, 'file': 'riv_sites_det_27_106.geojson', 'mean_measurements': 0.026}]",POINT (-2.166377 54.401041),0.026
67,NE-SSN0821,SSN00821 AZERLEY DRAIN TRIB OF KEX BECK,426095,474758,2025,2025,NE,27,HA027G05,HA027G05S0014,4.0,GB104027069260,3088.0,3309.0,EA,-1.601808,54.167975,RIVER / RUNNING SURFACE WATER,"[{'det_id': '0106', 'site_id': 'NE-SSN0821', 'det_label': 'Cd Filtered', 'det_desc': 'Cadmium, Dissolved', 'num_samples': 5, 'num_measurements': 1, 'file': 'riv_sites_det_27_106.geojson', 'mean_measurements': 0.01}]",POINT (-1.601808 54.167975),0.01
68,NE-SSN0822,SSN0822 ACRE GILL AT CLOGGER LANE,393261,449028,2025,2025,NE,27,HA027G04,HA027G04S0034,4.0,GB104027062980,3001.0,3484.0,EA,-2.104141,53.937338,RIVER / RUNNING SURFACE WATER,"[{'det_id': '0106', 'site_id': 'NE-SSN0822', 'det_label': 'Cd Filtered', 'det_desc': 'Cadmium, Dissolved', 'num_samples': 6, 'num_measurements': 1, 'file': 'riv_sites_det_27_106.geojson', 'mean_measurements': 0.035}]",POINT (-2.104141 53.937338),0.035
69,NE-SSN0837,SSN0837 DEAN BECK IN DEAN WOOD,425458,428855,2025,2025,NE,27,HA027G04,HA027G04S0004,4.0,GB104027062750,3001.0,3265.0,EA,-1.615375,53.755456,RIVER / RUNNING SURFACE WATER,"[{'det_id': '0106', 'site_id': 'NE-SSN0837', 'det_label': 'Cd Filtered', 'det_desc': 'Cadmium, Dissolved', 'num_samples': 4, 'num_measurements': 1, 'file': 'riv_sites_det_27_106.geojson', 'mean_measurements': 0.011}]",POINT (-1.615375 53.755456),0.011
70,NE-SSN0853,SSN0853 HOLBECK PLANTATION DRAIN,435132,465493,2025,2025,NE,27,HA027G05,HA027G05S0004,4.0,GB104027064110,3088.0,3309.0,EA,-1.464468,54.084175,RIVER / RUNNING SURFACE WATER,"[{'det_id': '0106', 'site_id': 'NE-SSN0853', 'det_label': 'Cd Filtered', 'det_desc': 'Cadmium, Dissolved', 'num_samples': 7, 'num_measurements': 1, 'file': 'riv_sites_det_27_106.geojson', 'mean_measurements': 0.012}]",POINT (-1.464468 54.084175),0.012
71,NE-SSN0869,SSN0869 ROSSAW BECK NR HEALTHWAITE HILL,429235,448552,2025,2025,NE,27,HA027G10,HA027G10S0032,4.0,GB104027063990,3115.0,3318.0,EA,-1.556228,53.932287,RIVER / RUNNING SURFACE WATER,"[{'det_id': '0106', 'site_id': 'NE-SSN0869', 'det_label': 'Cd Filtered', 'det_desc': 'Cadmium, Dissolved', 'num_samples': 4, 'num_measurements': 1, 'file': 'riv_sites_det_27_106.geojson', 'mean_measurements': 0.013}]",POINT (-1.556228 53.932287),0.013
72,NE-SSN0877,SSN0877 BUSCO BECK NEAR GLAISDALE SWANG,475325,505709,2025,2025,NE,27,HA027G15,HA027G15S0045,4.0,GB104027068150,3037.0,3177.0,EA,-0.840086,54.441231,RIVER / RUNNING SURFACE WATER,"[{'det_id': '0106', 'site_id': 'NE-SSN0877', 'det_label': 'Cd Filtered', 'det_desc': 'Cadmium, Dissolved', 'num_samples': 5, 'num_measurements': 1, 'file': 'riv_sites_det_27_106.geojson', 'mean_measurements': 0.052}]",POINT (-0.840086 54.441231),0.052
73,NE-SSN0897,SSN0897 HALLWOOD DRAIN ON WHELDRAKE LN,466343,445530,2025,2025,NE,27,HA027G11,HA027G11S0002,4.0,GB104027063710,3115.0,3280.0,EA,-0.991779,53.901719,RIVER / RUNNING SURFACE WATER,"[{'det_id': '0106', 'site_id': 'NE-SSN0897', 'det_label': 'Cd Filtered', 'det_desc': 'Cadmium, Dissolved', 'num_samples': 6, 'num_measurements': 1, 'file': 'riv_sites_det_27_106.geojson', 'mean_measurements': 0.017}]",POINT (-0.991779 53.901719),0.017
74,NE-SSN0913,SSN0913 COMMISSION BECK AT STITTENHAM,467590,468118,2025,2025,NE,27,HA027G09,HA027G09S0064,4.0,GB104027063580,3027.0,3311.0,EA,-0.967799,54.104535,RIVER / RUNNING SURFACE WATER,"[{'det_id': '0106', 'site_id': 'NE-SSN0913', 'det_label': 'Cd Filtered', 'det_desc': 'Cadmium, Dissolved', 'num_samples': 5, 'num_measurements': 1, 'file': 'riv_sites_det_27_106.geojson', 'mean_measurements': 0.01}]",POINT (-0.967799 54.104535),0.01
75,NE-SSN0933,SSN0933 BEDLAM DRAIN,420192,455582,2025,2025,NE,27,HA027G10,HA027G10S0049,4.0,GB104027064040,3115.0,3318.0,EA,-1.693492,53.9959,RIVER / RUNNING SURFACE WATER,"[{'det_id': '0106', 'site_id': 'NE-SSN0933', 'det_label': 'Cd Filtered', 'det_desc': 'Cadmium, Dissolved', 'num_samples': 8, 'num_measurements': 1, 'file': 'riv_sites_det_27_106.geojson', 'mean_measurements': 0.055}]",POINT (-1.693492 53.9959),0.055
76,NE-SSN0953,RAISDALE BECK TRIB U/S CONFLUENCE,455612,499455,2025,2025,NE,27,HA027G14,HA027G14S0065,4.0,GB104027068640,3027.0,3387.0,EA,-1.145163,54.387566,RIVER / RUNNING SURFACE WATER,"[{'det_id': '0106', 'site_id': 'NE-SSN0953', 'det_label': 'Cd Filtered', 'det_desc': 'Cadmium, Dissolved', 'num_samples': 5, 'num_measurements': 1, 'file': 'riv_sites_det_27_106.geojson', 'mean_measurements': 0.01}]",POINT (-1.145163 54.387566),0.01
77,NE-SSN1285,CLIFFE HOUSE BECK - SHEPLEY,419118,409466,2025,2025,NE,27,HA027G08,HA027G08S0009,4.0,GB104027063340,3001.0,3097.0,EA,-1.712714,53.581457,RIVER / RUNNING SURFACE WATER,"[{'det_id': '0106', 'site_id': 'NE-SSN1285', 'det_label': 'Cd Filtered', 'det_desc': 'Cadmium, Dissolved', 'num_samples': 25, 'num_measurements': 1, 'file': 'riv_sites_det_27_106.geojson', 'mean_measurements': 0.01}]",POINT (-1.712714 53.581457),0.01
78,NE-SSN1329,WEST GREEN DIKE AT WEST GREEN,437833,408415,2025,2025,NE,27,HA027G07,HA027G07S0003,4.0,GB104027063230,3029.0,3125.0,EA,-1.430182,53.571,RIVER / RUNNING SURFACE WATER,"[{'det_id': '0106', 'site_id': 'NE-SSN1329', 'det_label': 'Cd Filtered', 'det_desc': 'Cadmium, Dissolved', 'num_samples': 17, 'num_measurements': 1, 'file': 'riv_sites_det_27_106.geojson', 'mean_measurements': 0.014}]",POINT (-1.430182 53.571),0.014
79,NE-SSN1333,AKEBAR BECK TRIB OF NEWTON BECK,418910,490486,2025,2025,NE,27,HA027G13,HA027G13S0038,4.0,GB104027068940,3088.0,3317.0,EA,-1.710873,54.309637,RIVER / RUNNING SURFACE WATER,"[{'det_id': '0106', 'site_id': 'NE-SSN1333', 'det_label': 'Cd Filtered', 'det_desc': 'Cadmium, Dissolved', 'num_samples': 21, 'num_measurements': 1, 'file': 'riv_sites_det_27_106.geojson', 'mean_measurements': 0.01}]",POINT (-1.710873 54.309637),0.01
80,NE-SSN1381,TRIB OF DORTS DIKE - DORTS DIKE,449959,439289,2025,2025,NE,27,HA027G10,HA027G10S0002,4.0,GB104027063930,3115.0,3287.0,EA,-1.242121,53.847463,RIVER / RUNNING SURFACE WATER,"[{'det_id': '0106', 'site_id': 'NE-SSN1381', 'det_label': 'Cd Filtered', 'det_desc': 'Cadmium, Dissolved', 'num_samples': 17, 'num_measurements': 1, 'file': 'riv_sites_det_27_106.geojson', 'mean_measurements': 0.01}]",POINT (-1.242121 53.847463),0.01
81,NE-SSN1537,SSN1537 BOWTHORPE DIKE,470067,432989,2025,2025,NE,27,HA027G09,HA027G09S0003,4.0,GB104027068311,3027.0,3271.0,EA,-0.937966,53.788533,RIVER / RUNNING SURFACE WATER,"[{'det_id': '0106', 'site_id': 'NE-SSN1537', 'det_label': 'Cd Filtered', 'det_desc': 'Cadmium, Dissolved', 'num_samples': 6, 'num_measurements': 1, 'file': 'riv_sites_det_27_106.geojson', 'mean_measurements': 0.01}]",POINT (-0.937966 53.788533),0.01
82,NE-SSN1557,SSN1557 WESTMOOR DRAIN ON DAFFY LANE,455556,469811,2025,2025,NE,27,HA027G11,HA027G11S0030,4.0,GB104027063910,3088.0,3499.0,EA,-1.151508,54.121185,RIVER / RUNNING SURFACE WATER,"[{'det_id': '0106', 'site_id': 'NE-SSN1557', 'det_label': 'Cd Filtered', 'det_desc': 'Cadmium, Dissolved', 'num_samples': 6, 'num_measurements': 1, 'file': 'riv_sites_det_27_106.geojson', 'mean_measurements': 0.012}]",POINT (-1.151508 54.121185),0.012
83,NE-SSN1573,SSN1573 OSSETT DIKE TRIB OF LUPSET BECK,429806,419219,2025,2025,NE,27,HA027G08,HA027G08S0035,4.0,GB104027062631,3001.0,3268.0,EA,-1.550357,53.668621,RIVER / RUNNING SURFACE WATER,"[{'det_id': '0106', 'site_id': 'NE-SSN1573', 'det_label': 'Cd Filtered', 'det_desc': 'Cadmium, Dissolved', 'num_samples': 4, 'num_measurements': 1, 'file': 'riv_sites_det_27_106.geojson', 'mean_measurements': 0.015}]",POINT (-1.550357 53.668621),0.015
84,NE-SSN1585,SSN1585 GREENLANE DRAIN,433397,404153,2025,2025,NE,27,HA027G07,HA027G07S0004,4.0,GB104027057520,3029.0,3125.0,EA,-1.497615,53.532994,RIVER / RUNNING SURFACE WATER,"[{'det_id': '0106', 'site_id': 'NE-SSN1585', 'det_label': 'Cd Filtered', 'det_desc': 'Cadmium, Dissolved', 'num_samples': 5, 'num_measurements': 1, 'file': 'riv_sites_det_27_106.geojson', 'mean_measurements': 0.01}]",POINT (-1.497615 53.532994),0.01
85,NE-SSN1621,SSN1621 PIKESHAW WOOD DRAIN,439318,455361,2025,2025,NE,27,HA027G12,HA027G12S0004,4.0,GB104027063770,3088.0,3308.0,EA,-1.401792,53.992817,RIVER / RUNNING SURFACE WATER,"[{'det_id': '0106', 'site_id': 'NE-SSN1621', 'det_label': 'Cd Filtered', 'det_desc': 'Cadmium, Dissolved', 'num_samples': 5, 'num_measurements': 1, 'file': 'riv_sites_det_27_106.geojson', 'mean_measurements': 0.012}]",POINT (-1.401792 53.992817),0.012
86,MD-46070299,US SWO BETWEEN PENNYTOWN PONDS 1 AND 2,442425,354558,2025,2025,MD,28,HA028G12,HA028G12S0003,4.0,GB104028052740,3052.0,3174.0,EA,-1.36803,53.086579,RIVER / RUNNING SURFACE WATER,"[{'det_id': '0106', 'site_id': 'MD-46070299', 'det_label': 'Cd Filtered', 'det_desc': 'Cadmium, Dissolved', 'num_samples': 5, 'num_measurements': 2, 'file': 'riv_sites_det_28_106.geojson', 'mean_measurements': 0.14}]",POINT (-1.36803 53.086579),0.14
87,MD-46074601,PENNYTOWN PONDS DS SW DISCHARGE PT 4,442434,354551,2025,2025,MD,28,HA028G12,HA028G12S0003,4.0,GB104028052740,3052.0,3174.0,EA,-1.367897,53.086515,RIVER / RUNNING SURFACE WATER,"[{'det_id': '0106', 'site_id': 'MD-46074601', 'det_label': 'Cd Filtered', 'det_desc': 'Cadmium, Dissolved', 'num_samples': 2, 'num_measurements': 1, 'file': 'riv_sites_det_28_106.geojson', 'mean_measurements': 0.1}]",POINT (-1.367897 53.086515),0.10500000000000001
88,MD-49704500,RIVER DERWENT AT MATLOCK BATH,429696,358611,2025,2025,MD,28,HA028G10,HA028G10S0017,4.0,GB104028052390,3026.0,3137.0,EA,-1.557697,53.123867,RIVER / RUNNING SURFACE WATER,"[{'det_id': '0106', 'site_id': 'MD-49704500', 'det_label': 'Cd Filtered', 'det_desc': 'Cadmium, Dissolved', 'num_samples': 220, 'num_measurements': 1, 'file': 'riv_sites_det_28_106.geojson', 'mean_measurements': 0.25}]",POINT (-1.557697 53.123867),0.31
89,MD-53175604,PEAKSHOLE WATER AT SOURCE,414823,382693,2025,2025,MD,28,HA028G10,HA028G10S0053,4.0,GB104028057860,3026.0,3137.0,EA,-1.778835,53.340949,RIVER / RUNNING SURFACE WATER,"[{'det_id': '0106', 'site_id': 'MD-53175604', 'det_label': 'Cd Filtered', 'det_desc': 'Cadmium, Dissolved', 'num_samples': 1, 'num_measurements': 1, 'file': 'riv_sites_det_28_106.geojson', 'mean_measurements': 0.28}]",POINT (-1.778835 53.340949),0.28
90,MD-53175605,ODIN SITCH 50M D/S OF SOURCE BY FENCE,413809,383485,2025,2025,MD,28,HA028G10,HA028G10S0053,4.0,GB104028057860,3026.0,3137.0,EA,-1.79403,53.348095,RIVER / RUNNING SURFACE WATER,"[{'det_id': '0106', 'site_id': 'MD-53175605', 'det_label': 'Cd Filtered', 'det_desc': 'Cadmium, Dissolved', 'num_samples': 1, 'num_measurements': 1, 'file': 'riv_sites_det_28_106.geojson', 'mean_measurements': 0.95}]",POINT (-1.79403 53.348095),0.95
91,MD-53175606,ODIN SITCH AT KNOWLES GATE FARM,413785,383373,2025,2025,MD,28,HA028G10,HA028G10S0053,4.0,GB104028057860,3026.0,3137.0,EA,-1.794395,53.347089,RIVER / RUNNING SURFACE WATER,"[{'det_id': '0106', 'site_id': 'MD-53175606', 'det_label': 'Cd Filtered', 'det_desc': 'Cadmium, Dissolved', 'num_samples': 1, 'num_measurements': 1, 'file': 'riv_sites_det_28_106.geojson', 'mean_measurements': 5.4}]",POINT (-1.794395 53.347089),5.4
92,MD-53175607,ODIN SICH D/S DUNSCAR FARM BRIDGE,414228,383277,2025,2025,MD,28,HA028G10,HA028G10S0053,4.0,GB104028057860,3026.0,3137.0,EA,-1.787745,53.346215,RIVER / RUNNING SURFACE WATER,"[{'det_id': '0106', 'site_id': 'MD-53175607', 'det_label': 'Cd Filtered', 'det_desc': 'Cadmium, Dissolved', 'num_samples': 1, 'num_measurements': 1, 'file': 'riv_sites_det_28_106.geojson', 'mean_measurements': 3.6}]",POINT (-1.787745 53.346215),3.6
93,MD-53175608,BRADWELL BROOK D/S PICTOREND SOUGH,417581,381380,2025,2025,MD,28,HA028G10,HA028G10S0054,4.0,GB104028057850,3026.0,3137.0,EA,-1.737485,53.329063,RIVER / RUNNING SURFACE WATER,"[{'det_id': '0106', 'site_id': 'MD-53175608', 'det_label': 'Cd Filtered', 'det_desc': 'Cadmium, Dissolved', 'num_samples': 1, 'num_measurements': 1, 'file': 'riv_sites_det_28_106.geojson', 'mean_measurements': 0.59}]",POINT (-1.737485 53.329063),0.59
94,MD-53175609,DALE/STOKE BK AT THE CUPOLA CAFE,422432,375663,2025,2025,MD,28,HA028G10,HA028G10S0037,4.0,GB104028057880,3026.0,3137.0,EA,-1.665052,53.277494,RIVER / RUNNING SURFACE WATER,"[{'det_id': '0106', 'site_id': 'MD-53175609', 'det_label': 'Cd Filtered', 'det_desc': 'Cadmium, Dissolved', 'num_samples': 1, 'num_measurements': 1, 'file': 'riv_sites_det_28_106.geojson', 'mean_measurements': 1.2}]",POINT (-1.665052 53.277494),1.2
95,MD-53175610,RIVER DERWENT AT THE SHUTTLE HOUSE,424381,375378,2025,2025,MD,28,HA028G10,HA028G10S0030,4.0,GB104028057880,3026.0,3137.0,EA,-1.635846,53.274847,RIVER / RUNNING SURFACE WATER,"[{'det_id': '0106', 'site_id': 'MD-53175610', 'det_label': 'Cd Filtered', 'det_desc': 'Cadmium, Dissolved', 'num_samples': 1, 'num_measurements': 1, 'file': 'riv_sites_det_28_106.geojson', 'mean_measurements': 0.1}]",POINT (-1.635846 53.274847),0.1
96,MD-53175611,RIVER DERWENT D/S CALVER OUTFALL,424552,374100,2025,2025,MD,28,HA028G10,HA028G10S0030,4.0,GB104028057880,3026.0,3137.0,EA,-1.63338,53.263352,RIVER / RUNNING SURFACE WATER,"[{'det_id': '0106', 'site_id': 'MD-53175611', 'det_label': 'Cd Filtered', 'det_desc': 'Cadmium, Dissolved', 'num_samples': 1, 'num_measurements': 1, 'file': 'riv_sites_det_28_106.geojson', 'mean_measurements': 0.19}]",POINT (-1.63338 53.263352),0.19
97,MD-RSN1308,RSN1308 TRIB OF HOO BROOK AT BUTTERTON,406835,356945,2025,2025,MD,28,HA028G07,HA028G07S0048,4.0,GB104028052891,3032.0,3144.0,EA,-1.899347,53.109668,RIVER / RUNNING SURFACE WATER,"[{'det_id': '0106', 'site_id': 'MD-RSN1308', 'det_label': 'Cd Filtered', 'det_desc': 'Cadmium, Dissolved', 'num_samples': 2, 'num_measurements': 1, 'file': 'riv_sites_det_28_106.geojson', 'mean_measurements': 0.37}]",POINT (-1.899347 53.109668),0.16949999999999998
98,MD-RSN1310,RSN1310 STAUNTON IN THE VALE,480895,342826,2025,2025,MD,28,HA028G11,HA028G11S0011,4.0,GB104028052490,3052.0,3416.0,EA,-0.7967,52.976711,RIVER / RUNNING SURFACE WATER,"[{'det_id': '0106', 'site_id': 'MD-RSN1310', 'det_label': 'Cd Filtered', 'det_desc': 'Cadmium, Dissolved', 'num_samples': 2, 'num_measurements': 1, 'file': 'riv_sites_det_28_106.geojson', 'mean_measurements': 0.01}]",POINT (-0.7967 52.976711),0.01
99,MD-SSN0009,SHORTWOOD LANE,469617,366377,2025,2025,MD,28,HA028G13,HA028G13S0004,4.0,GB104028052980,3041.0,3229.0,EA,-0.95954,53.189956,RIVER / RUNNING SURFACE WATER,"[{'det_id': '0106', 'site_id': 'MD-SSN0009', 'det_label': 'Cd Filtered', 'det_desc': 'Cadmium, Dissolved', 'num_samples': 31, 'num_measurements': 1, 'file': 'riv_sites_det_28_106.geojson', 'mean_measurements': 0.01}]",POINT (-0.9595399999999999 53.189956),0.01
100,MD-SSN0042,BEECHDALE LANE - SWYNNERTON BROOK,386211,337904,2025,2025,MD,28,HA028G05,HA028G05S0032,4.0,GB104028053272,3101.0,3470.0,EA,-2.206615,52.938367,RIVER / RUNNING SURFACE WATER,"[{'det_id': '0106', 'site_id': 'MD-SSN0042', 'det_label': 'Cd Filtered', 'det_desc': 'Cadmium, Dissolved', 'num_samples': 21, 'num_measurements': 1, 'file': 'riv_sites_det_28_106.geojson', 'mean_measurements': 0.014}]",POINT (-2.206615 52.938367),0.014
101,MD-SSN0063,SSN0063 TRIB OF LITTLEHAY BROOK,412560,302505,2025,2025,MD,28,HA028G01,HA028G01S0029,4.0,GB104028047000,3090.0,3437.0,EA,-1.815902,52.620185,RIVER / RUNNING SURFACE WATER,"[{'det_id': '0106', 'site_id': 'MD-SSN0063', 'det_label': 'Cd Filtered', 'det_desc': 'Cadmium, Dissolved', 'num_samples': 5, 'num_measurements': 1, 'file': 'riv_sites_det_28_106.geojson', 'mean_measurements': 0.031}]",POINT (-1.815902 52.620185),0.031
102,MD-SSN0161,HELL BANK - BEELEY BROOK,427961,367864,2025,2025,MD,28,HA028G10,HA028G10S0025,4.0,GB104028057880,3026.0,3137.0,EA,-1.582819,53.207132,RIVER / RUNNING SURFACE WATER,"[{'det_id': '0106', 'site_id': 'MD-SSN0161', 'det_label': 'Cd Filtered', 'det_desc': 'Cadmium, Dissolved', 'num_samples': 16, 'num_measurements': 1, 'file': 'riv_sites_det_28_106.geojson', 'mean_measurements': 0.025}]",POINT (-1.582819 53.207132),0.025
103,MD-SSN0168,DOLEY BROOK AT GNOSALL ALLOTMENTS,382452,320738,2025,2025,MD,28,HA028G06,HA028G06S0003,4.0,GB104028046761,3101.0,3356.0,EA,-2.261614,52.783946,RIVER / RUNNING SURFACE WATER,"[{'det_id': '0106', 'site_id': 'MD-SSN0168', 'det_label': 'Cd Filtered', 'det_desc': 'Cadmium, Dissolved', 'num_samples': 16, 'num_measurements': 1, 'file': 'riv_sites_det_28_106.geojson', 'mean_measurements': 0.01}]",POINT (-2.261614 52.783946),0.01
104,MD-SSN0177,SHIREBROOK WOOD - SOOKHOLME BROOK,454103,367359,2025,2025,MD,28,HA028G13,HA028G13S0008,4.0,GB104028058050,3041.0,3229.0,EA,-1.191534,53.200582,RIVER / RUNNING SURFACE WATER,"[{'det_id': '0106', 'site_id': 'MD-SSN0177', 'det_label': 'Cd Filtered', 'det_desc': 'Cadmium, Dissolved', 'num_samples': 17, 'num_measurements': 1, 'file': 'riv_sites_det_28_106.geojson', 'mean_measurements': 0.095}]",POINT (-1.191534 53.200582),0.095
105,MD-SSN0225,SSN0225 TRIB OF CHURNET U/S OF BIG WOOD,403075,360818,2025,2025,MD,28,HA028G07,HA028G07S0031,4.0,GB104028052800,3032.0,3080.0,EA,-1.955479,53.144517,RIVER / RUNNING SURFACE WATER,"[{'det_id': '0106', 'site_id': 'MD-SSN0225', 'det_label': 'Cd Filtered', 'det_desc': 'Cadmium, Dissolved', 'num_samples': 6, 'num_measurements': 2, 'file': 'riv_sites_det_28_106.geojson', 'mean_measurements': 0.056}]",POINT (-1.955479 53.144517),0.056
106,MD-SSN0808,SSN0808 TRIB OF HORSE BROOK AT STRETTON,387751,311616,2025,2025,MD,28,HA028G06,HA028G06S0001,4.0,GB104028047122,3101.0,3356.0,EA,-2.182703,52.702091,RIVER / RUNNING SURFACE WATER,"[{'det_id': '0106', 'site_id': 'MD-SSN0808', 'det_label': 'Cd Filtered', 'det_desc': 'Cadmium, Dissolved', 'num_samples': 9, 'num_measurements': 1, 'file': 'riv_sites_det_28_106.geojson', 'mean_measurements': 0.01}]",POINT (-2.182703 52.702091),0.01
107,MD-SSN0865,"SSN0865 TRIB OF THE CHURNET, IPSTONES",402299,349810,2025,2025,MD,28,HA028G07,HA028G07S0021,4.0,GB104028052652,3032.0,3080.0,EA,-1.967156,53.045569,RIVER / RUNNING SURFACE WATER,"[{'det_id': '0106', 'site_id': 'MD-SSN0865', 'det_label': 'Cd Filtered', 'det_desc': 'Cadmium, Dissolved', 'num_samples': 5, 'num_measurements': 1, 'file': 'riv_sites_det_28_106.geojson', 'mean_measurements': 0.015}]",POINT (-1.967156 53.045569),0.015
108,MD-SSN0872,SSN0872 MEECE BROOK AT YARNFIELD,386294,333145,2025,2025,MD,28,HA028G06,HA028G06S0018,4.0,GB104028053010,3101.0,3420.0,EA,-2.205177,52.895589,RIVER / RUNNING SURFACE WATER,"[{'det_id': '0106', 'site_id': 'MD-SSN0872', 'det_label': 'Cd Filtered', 'det_desc': 'Cadmium, Dissolved', 'num_samples': 7, 'num_measurements': 1, 'file': 'riv_sites_det_28_106.geojson', 'mean_measurements': 0.01}]",POINT (-2.205177 52.895589),0.01
109,MD-SSN0895,SSN0895 OLDACRE BROOK AT BROCTON HALL,396263,319955,2025,2025,MD,28,HA028G06,HA028G06S0007,4.0,GB104028047190,3101.0,3420.0,EA,-2.056833,52.777183,RIVER / RUNNING SURFACE WATER,"[{'det_id': '0106', 'site_id': 'MD-SSN0895', 'det_label': 'Cd Filtered', 'det_desc': 'Cadmium, Dissolved', 'num_samples': 4, 'num_measurements': 1, 'file': 'riv_sites_det_28_106.geojson', 'mean_measurements': 0.01}]",POINT (-2.056833 52.777183),0.01
110,MD-SSN0929,SSN0929 U/S OAKENDOUGH BK,404584,362925,2025,2025,MD,28,HA028G07,HA028G07S0053,4.0,GB104028052891,3032.0,3144.0,EA,-1.932889,53.163447,RIVER / RUNNING SURFACE WATER,"[{'det_id': '0106', 'site_id': 'MD-SSN0929', 'det_label': 'Cd Filtered', 'det_desc': 'Cadmium, Dissolved', 'num_samples': 3, 'num_measurements': 1, 'file': 'riv_sites_det_28_106.geojson', 'mean_measurements': 0.24}]",POINT (-1.932889 53.163447),0.24
111,MD-SSN1377,7 ENDON BROOK TRIB AT NEWSTEAD FARM,396310,350342,2025,2025,MD,28,HA028G07,HA028G07S0031,4.0,GB104028052711,3032.0,3080.0,EA,-2.056495,53.050342,RIVER / RUNNING SURFACE WATER,"[{'det_id': '0106', 'site_id': 'MD-SSN1377', 'det_label': 'Cd Filtered', 'det_desc': 'Cadmium, Dissolved', 'num_samples': 22, 'num_measurements': 1, 'file': 'riv_sites_det_28_106.geojson', 'mean_measurements': 0.034}]",POINT (-2.056495 53.050342),0.034
112,MD-SSN1386,GRATTON LANE ENDON BROOK - HORTON BROOK,393205,355159,2025,2025,MD,28,HA028G07,HA028G07S0045,4.0,GB104028052711,3032.0,3080.0,EA,-2.102919,53.093611,RIVER / RUNNING SURFACE WATER,"[{'det_id': '0106', 'site_id': 'MD-SSN1386', 'det_label': 'Cd Filtered', 'det_desc': 'Cadmium, Dissolved', 'num_samples': 18, 'num_measurements': 1, 'file': 'riv_sites_det_28_106.geojson', 'mean_measurements': 0.01}]",POINT (-2.102919 53.093611),0.01
113,MD-SSN1569,SSN1569 SHIRLEY BROOK TRIB AT LINTWOOD,420254,344075,2025,2025,MD,28,HA028G07,HA028G07S0017,4.0,GB104028052870,3032.0,3143.0,EA,-1.699697,52.993643,RIVER / RUNNING SURFACE WATER,"[{'det_id': '0106', 'site_id': 'MD-SSN1569', 'det_label': 'Cd Filtered', 'det_desc': 'Cadmium, Dissolved', 'num_samples': 3, 'num_measurements': 1, 'file': 'riv_sites_det_28_106.geojson', 'mean_measurements': 0.15}]",POINT (-1.699697 52.993643),0.15
114,MD-SSN1576,SSN1576 TRIB OF HORSE BROOK,384746,308559,2025,2025,MD,28,HA028G06,HA028G06S0001,4.0,GB104028047122,3101.0,3356.0,EA,-2.22703,52.674533,RIVER / RUNNING SURFACE WATER,"[{'det_id': '0106', 'site_id': 'MD-SSN1576', 'det_label': 'Cd Filtered', 'det_desc': 'Cadmium, Dissolved', 'num_samples': 7, 'num_measurements': 1, 'file': 'riv_sites_det_28_106.geojson', 'mean_measurements': 0.01}]",POINT (-2.22703 52.674533),0.01
115,AN-SSN0025,ALMA BECK AT LION LODGE CORNER - ALMA BE,492598,337719,2025,2025,AN,30,HA030G01,HA030G01S0005,5.0,GB105030056780,3116.0,3508.0,EA,-0.623921,52.928925,RIVER / RUNNING SURFACE WATER,"[{'det_id': '0106', 'site_id': 'AN-SSN0025', 'det_label': 'Cd Filtered', 'det_desc': 'Cadmium, Dissolved', 'num_samples': 18, 'num_measurements': 1, 'file': 'riv_sites_det_30_106.geojson', 'mean_measurements': 0.01}]",POINT (-0.6239209999999999 52.928925),0.01
116,AN-SSN0809,SSN0809 FAR HOLT DRAIN @ TUMBY WOODSIDE,527357,357692,2025,2025,AN,30,HA030G02,HA030G02S0057,5.0,GB205030056465,3116.0,3156.0,EA,-0.099231,53.101261,RIVER / RUNNING SURFACE WATER,"[{'det_id': '0106', 'site_id': 'AN-SSN0809', 'det_label': 'Cd Filtered', 'det_desc': 'Cadmium, Dissolved', 'num_samples': 5, 'num_measurements': 1, 'file': 'riv_sites_det_30_106.geojson', 'mean_measurements': 0.011}]",POINT (-0.099231 53.101261),0.011
117,AN-SSN1289,MILL LANE DRAIN AT MILL LANE,508645,386501,2025,2025,AN,30,HA030G04,HA030G04S0043,5.0,GB105030062330,3116.0,3288.0,EA,-0.368777,53.364246,RIVER / RUNNING SURFACE WATER,"[{'det_id': '0106', 'site_id': 'AN-SSN1289', 'det_label': 'Cd Filtered', 'det_desc': 'Cadmium, Dissolved', 'num_samples': 34, 'num_measurements': 1, 'file': 'riv_sites_det_30_106.geojson', 'mean_measurements': 0.01}]",POINT (-0.368777 53.364246),0.01
118,AN-SSN1545,SSN1545 BAUMBER DRAIN U/S WATERMILL,523067,375678,2025,2025,AN,30,HA030G04,HA030G04S0042,5.0,GB105030062300,3116.0,3288.0,EA,-0.156355,53.263856,RIVER / RUNNING SURFACE WATER,"[{'det_id': '0106', 'site_id': 'AN-SSN1545', 'det_label': 'Cd Filtered', 'det_desc': 'Cadmium, Dissolved', 'num_samples': 7, 'num_measurements': 1, 'file': 'riv_sites_det_30_106.geojson', 'mean_measurements': 0.01}]",POINT (-0.156355 53.263856),0.01
119,AN-SSN1561,SSN1561 GRAINFIELD DRN @ ROWSTON FARM,510345,356388,2025,2025,AN,30,HA030G04,HA030G04S0010,5.0,GB105030056175,3116.0,3288.0,EA,-0.353648,53.093327,RIVER / RUNNING SURFACE WATER,"[{'det_id': '0106', 'site_id': 'AN-SSN1561', 'det_label': 'Cd Filtered', 'det_desc': 'Cadmium, Dissolved', 'num_samples': 9, 'num_measurements': 1, 'file': 'riv_sites_det_30_106.geojson', 'mean_measurements': 0.01}]",POINT (-0.353648 53.093327),0.01
120,AN-SSN1577,SSN1577 REVESBY DRAIN AT A155,529022,361248,2025,2025,AN,30,HA030G02,HA030G02S0058,5.0,GB205030056465,3116.0,3156.0,EA,-0.07295,53.132809,RIVER / RUNNING SURFACE WATER,"[{'det_id': '0106', 'site_id': 'AN-SSN1577', 'det_label': 'Cd Filtered', 'det_desc': 'Cadmium, Dissolved', 'num_samples': 7, 'num_measurements': 1, 'file': 'riv_sites_det_30_106.geojson', 'mean_measurements': 0.01}]",POINT (-0.07295 53.132809),0.01
121,AN-SSN0859,SSN0859 KING STREET DRAIN,510772,312295,2025,2025,AN,31,HA031G02,HA031G02S0007,5.0,GB105031050770,3112.0,3203.0,EA,-0.362272,52.697032,RIVER / RUNNING SURFACE WATER,"[{'det_id': '0106', 'site_id': 'AN-SSN0859', 'det_label': 'Cd Filtered', 'det_desc': 'Cadmium, Dissolved', 'num_samples': 5, 'num_measurements': 1, 'file': 'riv_sites_det_31_106.geojson', 'mean_measurements': 0.01}]",POINT (-0.362272 52.697032),0.01
122,AN-SSN0923,SSN0923 NORTHORPE FEN,510467,317951,2025,2025,AN,31,HA031G02,HA031G02S0010,5.0,GB105031050720,3112.0,3203.0,EA,-0.364885,52.74792,RIVER / RUNNING SURFACE WATER,"[{'det_id': '0106', 'site_id': 'AN-SSN0923', 'det_label': 'Cd Filtered', 'det_desc': 'Cadmium, Dissolved', 'num_samples': 5, 'num_measurements': 1, 'file': 'riv_sites_det_31_106.geojson', 'mean_measurements': 0.015}]",POINT (-0.364885 52.74792),0.015
123,AN-SSN1371,"GAMBORO PLANT STREAM, BLUEBERRY GRANGE",472912,274443,2025,2025,AN,32,HA032G03,HA032G03S0001,5.0,GB105032045540,3059.0,3042.0,EA,-0.930664,52.363216,RIVER / RUNNING SURFACE WATER,"[{'det_id': '0106', 'site_id': 'AN-SSN1371', 'det_label': 'Cd Filtered', 'det_desc': 'Cadmium, Dissolved', 'num_samples': 22, 'num_measurements': 1, 'file': 'riv_sites_det_32_106.geojson', 'mean_measurements': 0.012}]",POINT (-0.930664 52.363216),0.012
124,AN-53M95,MIDDLE LEVEL MD PINGLE RD. BR.,552429,302070,2025,2025,AN,33,HA033G10,HA033G10S0079,5.0,GB205033000050,3069.0,3313.0,EA,0.248989,52.59507,RIVER / RUNNING SURFACE WATER,"[{'det_id': '0106', 'site_id': 'AN-53M95', 'det_label': 'Cd Filtered', 'det_desc': 'Cadmium, Dissolved', 'num_samples': 7, 'num_measurements': 3, 'file': 'riv_sites_det_33_106.geojson', 'mean_measurements': 0.0106666666666666}]",POINT (0.248989 52.59507),0.010666666666666666
125,AN-MISCSP64,MISC.10KM SQ TOWCESTER..............SP64,460000,240000,2025,2025,AN,33,HA033G02,HA033G02S0004,5.0,GB105033037940,3104.0,3491.0,EA,-1.126346,52.055156,RIVER / RUNNING SURFACE WATER,"[{'det_id': '0106', 'site_id': 'AN-MISCSP64', 'det_label': 'Cd Filtered', 'det_desc': 'Cadmium, Dissolved', 'num_samples': 41, 'num_measurements': 1, 'file': 'riv_sites_det_33_106.geojson', 'mean_measurements': 0.021}]",POINT (-1.126346 52.055156),0.021
126,AN-MISCTL29,MISC.10KM SQ WHITTLESEY.............TL29,520000,290000,2025,2025,AN,33,HA033G10,HA033G10S0046,5.0,GB205033000050,3069.0,3313.0,EA,-0.233857,52.494735,RIVER / RUNNING SURFACE WATER,"[{'det_id': '0106', 'site_id': 'AN-MISCTL29', 'det_label': 'Cd Filtered', 'det_desc': 'Cadmium, Dissolved', 'num_samples': 115, 'num_measurements': 2, 'file': 'riv_sites_det_33_106.geojson', 'mean_measurements': 0.1}]",POINT (-0.233857 52.494735),0.09999999999999999
127,AN-SSN0196,PADBURY TRIB NR OXLANE BRIDGE - TRIB GAW,470471,230408,2025,2025,AN,33,HA033G02,HA033G02S0003,5.0,GB105033038220,3104.0,3491.0,EA,-0.975628,51.967699,RIVER / RUNNING SURFACE WATER,"[{'det_id': '0106', 'site_id': 'AN-SSN0196', 'det_label': 'Cd Filtered', 'det_desc': 'Cadmium, Dissolved', 'num_samples': 17, 'num_measurements': 1, 'file': 'riv_sites_det_33_106.geojson', 'mean_measurements': 0.029}]",POINT (-0.9756280000000001 51.967699),0.029
128,AN-SSN0275,SSN0275 PINGO TRAIL NATURE RESERVE,593986,296552,2025,2025,AN,33,HA033G09,HA033G09S0007,5.0,GB105033047840,3009.0,3542.0,EA,0.858559,52.5323,RIVER / RUNNING SURFACE WATER,"[{'det_id': '0106', 'site_id': 'AN-SSN0275', 'det_label': 'Cd Filtered', 'det_desc': 'Cadmium, Dissolved', 'num_samples': 9, 'num_measurements': 1, 'file': 'riv_sites_det_33_106.geojson', 'mean_measurements': 0.01}]",POINT (0.858559 52.5323),0.01
129,AN-SSN0279,SSN0279 W OF LACKFORD LAKES RESERVE,579637,270754,2025,2025,AN,33,HA033G06,HA033G06S0006,5.0,GB105033043051,3009.0,3249.0,EA,0.633422,52.305534,RIVER / RUNNING SURFACE WATER,"[{'det_id': '0106', 'site_id': 'AN-SSN0279', 'det_label': 'Cd Filtered', 'det_desc': 'Cadmium, Dissolved', 'num_samples': 4, 'num_measurements': 1, 'file': 'riv_sites_det_33_106.geojson', 'mean_measurements': 0.01}]",POINT (0.633422 52.305534),0.01
130,AN-SSN1284,TURVEY TRIB OPP PRIORY FARM,495505,252202,2025,2025,AN,33,HA033G03,HA033G03S0003,5.0,GB105033047923,3104.0,3028.0,EA,-0.60525,52.159852,RIVER / RUNNING SURFACE WATER,"[{'det_id': '0106', 'site_id': 'AN-SSN1284', 'det_label': 'Cd Filtered', 'det_desc': 'Cadmium, Dissolved', 'num_samples': 28, 'num_measurements': 1, 'file': 'riv_sites_det_33_106.geojson', 'mean_measurements': 0.051}]",POINT (-0.60525 52.159852),0.051
131,AN-MISCTM28,MISC.10KM SQ HARLESTON..............TM28,620000,280000,2025,2025,AN,34,HA034G01,HA034G01S0012,5.0,GB105034045901,3008.0,3518.0,EA,1.230567,52.37386,RIVER / RUNNING SURFACE WATER,"[{'det_id': '0106', 'site_id': 'AN-MISCTM28', 'det_label': 'Cd Filtered', 'det_desc': 'Cadmium, Dissolved', 'num_samples': 65, 'num_measurements': 1, 'file': 'riv_sites_det_34_106.geojson', 'mean_measurements': 0.1}]",POINT (1.230567 52.37386),0.1
132,AN-SSN1575,SSN1575 TRIB.OLD R.BRETT,596351,249190,2025,2025,AN,36,HA036G01,HA036G01S0015,5.0,GB105036040760,3018.0,3424.0,EA,0.865765,52.106191,RIVER / RUNNING SURFACE WATER,"[{'det_id': '0106', 'site_id': 'AN-SSN1575', 'det_label': 'Cd Filtered', 'det_desc': 'Cadmium, Dissolved', 'num_samples': 6, 'num_measurements': 1, 'file': 'riv_sites_det_36_106.geojson', 'mean_measurements': 0.01}]",POINT (0.865765 52.106191),0.01
133,AN-SSN0179,BADDOW BK. NR MILL FISHERY CHELMSFORD,573091,206133,2025,2025,AN,37,HA037G03,HA037G03S0013,5.0,GB105037033530,3018.0,3077.0,EA,0.504866,51.727201,RIVER / RUNNING SURFACE WATER,"[{'det_id': '0106', 'site_id': 'AN-SSN0179', 'det_label': 'Cd Filtered', 'det_desc': 'Cadmium, Dissolved', 'num_samples': 18, 'num_measurements': 1, 'file': 'riv_sites_det_37_106.geojson', 'mean_measurements': 0.031}]",POINT (0.504866 51.727201),0.031
134,AN-SSN1331,STREAM NEAR CODHAM HALL LANE,558557,189152,2025,2025,AN,37,HA037G09,HA037G09S0012,6.0,GB106037028080,3084.0,3297.0,EA,0.286922,51.578934,RIVER / RUNNING SURFACE WATER,"[{'det_id': '0106', 'site_id': 'AN-SSN1331', 'det_label': 'Cd Filtered', 'det_desc': 'Cadmium, Dissolved', 'num_samples': 19, 'num_measurements': 1, 'file': 'riv_sites_det_37_106.geojson', 'mean_measurements': 0.036}]",POINT (0.286922 51.578934),0.036
135,AN-SSN1367,D'ARCY STREAM NEAR TOLLESHUNT D'ARCY,593240,210739,2025,2025,AN,37,HA037G02,HA037G02S0016,5.0,,3018.0,3034.0,EA,0.798813,51.76199,RIVER / RUNNING SURFACE WATER,"[{'det_id': '0106', 'site_id': 'AN-SSN1367', 'det_label': 'Cd Filtered', 'det_desc': 'Cadmium, Dissolved', 'num_samples': 16, 'num_measurements': 1, 'file': 'riv_sites_det_37_106.geojson', 'mean_measurements': 0.025}]",POINT (0.798813 51.76199),0.025
136,AN-SSN1379,TRIB.R.TER NEAR BANNISTER GREEN,568993,220526,2025,2025,AN,37,HA037G03,HA037G03S0015,5.0,GB105037033940,3018.0,3077.0,EA,0.452598,51.857741,RIVER / RUNNING SURFACE WATER,"[{'det_id': '0106', 'site_id': 'AN-SSN1379', 'det_label': 'Cd Filtered', 'det_desc': 'Cadmium, Dissolved', 'num_samples': 21, 'num_measurements': 1, 'file': 'riv_sites_det_37_106.geojson', 'mean_measurements': 0.01}]",POINT (0.452598 51.857741),0.01
137,TH-RSN1401,RSN1401 ARNOLDS FARM,549076,197900,2025,2025,TH,37,HA037G01,HA037G01S0005,6.0,GB106037028182,3071.0,3383.0,EA,0.153917,51.66012,RIVER / RUNNING SURFACE WATER,"[{'det_id': '0106', 'site_id': 'TH-RSN1401', 'det_label': 'Cd Filtered', 'det_desc': 'Cadmium, Dissolved', 'num_samples': 4, 'num_measurements': 3, 'file': 'riv_sites_det_37_106.geojson', 'mean_measurements': 0.0206666666666666}]",POINT (0.153917 51.66012),0.022
138,TH-SSN0211,SSN0211 ROCHETTS FARM,556335,193488,2025,2025,TH,37,HA037G09,HA037G09S0036,6.0,GB106037028130,3071.0,3383.0,EA,0.25681,51.618511,RIVER / RUNNING SURFACE WATER,"[{'det_id': '0106', 'site_id': 'TH-SSN0211', 'det_label': 'Cd Filtered', 'det_desc': 'Cadmium, Dissolved', 'num_samples': 7, 'num_measurements': 1, 'file': 'riv_sites_det_37_106.geojson', 'mean_measurements': 0.013}]",POINT (0.25681 51.618511),0.013
139,TH-SSN1619,SSN1619 RISE PARK,551462,191475,2025,2025,TH,37,HA037G09,HA037G09S0035,6.0,GB106037028120,3071.0,3383.0,EA,0.18561,51.601756,RIVER / RUNNING SURFACE WATER,"[{'det_id': '0106', 'site_id': 'TH-SSN1619', 'det_label': 'Cd Filtered', 'det_desc': 'Cadmium, Dissolved', 'num_samples': 5, 'num_measurements': 1, 'file': 'riv_sites_det_37_106.geojson', 'mean_measurements': 0.018}]",POINT (0.18561 51.601756),0.018
140,AN-MISCTL12,MISC.10KM SQ LUTON..................TL12,510000,220000,2025,2025,AN,38,HA038G01,HA038G01S0019,6.0,GB106038033391,3105.0,3493.0,EA,-0.403765,51.86775,RIVER / RUNNING SURFACE WATER,"[{'det_id': '0106', 'site_id': 'AN-MISCTL12', 'det_label': 'Cd Filtered', 'det_desc': 'Cadmium, Dissolved', 'num_samples': 12, 'num_measurements': 3, 'file': 'riv_sites_det_38_106.geojson', 'mean_measurements': 0.01}]",POINT (-0.403765 51.86775),0.01
141,TH-PGWL0094,"VIRGINIA WATER OUTLET, ABOVE A30 ROADBRI",497750,168550,2025,2025,TH,39,HA039G14,HA039G14S0004,6.0,GB106039017070,3114.0,3536.0,EA,-0.595979,51.407561,RIVER / RUNNING SURFACE WATER,"[{'det_id': '0106', 'site_id': 'TH-PGWL0094', 'det_label': 'Cd Filtered', 'det_desc': 'Cadmium, Dissolved', 'num_samples': 13, 'num_measurements': 3, 'file': 'riv_sites_det_39_106.geojson', 'mean_measurements': 0.01}]",POINT (-0.595979 51.407561),0.01
142,TH-RSN0402,DS M40,462776,210139,2025,2025,TH,39,HA039G07,HA039G07S0010,6.0,GB106039030240,3098.0,3459.0,EA,-1.091297,51.786403,RIVER / RUNNING SURFACE WATER,"[{'det_id': '0106', 'site_id': 'TH-RSN0402', 'det_label': 'Cd Filtered', 'det_desc': 'Cadmium, Dissolved', 'num_samples': 2, 'num_measurements': 1, 'file': 'riv_sites_det_39_106.geojson', 'mean_measurements': 0.098}]",POINT (-1.091297 51.786403),0.049600000000000005
143,TH-RSN1301,RSN1301 D/S FOOTBRIDGE BORDON INCLOSURE,480448,136293,2025,2025,TH,39,HA039G02,HA039G02S0003,6.0,GB106039017720,3114.0,3536.0,EA,-0.851925,51.120281,RIVER / RUNNING SURFACE WATER,"[{'det_id': '0106', 'site_id': 'TH-RSN1301', 'det_label': 'Cd Filtered', 'det_desc': 'Cadmium, Dissolved', 'num_samples': 1, 'num_measurements': 1, 'file': 'riv_sites_det_39_106.geojson', 'mean_measurements': 0.015}]",POINT (-0.851925 51.120281),0.011166666666666667
144,TH-RSN1314,RSN1314 U/S MEADS FARM TRACK,465043,210209,2025,2025,TH,39,HA039G07,HA039G07S0010,6.0,GB106039030340,3098.0,3459.0,EA,-1.058423,51.786774,RIVER / RUNNING SURFACE WATER,"[{'det_id': '0106', 'site_id': 'TH-RSN1314', 'det_label': 'Cd Filtered', 'det_desc': 'Cadmium, Dissolved', 'num_samples': 4, 'num_measurements': 1, 'file': 'riv_sites_det_39_106.geojson', 'mean_measurements': 0.069}]",POINT (-1.058423 51.786774),0.0274
145,TH-RSN1318,RSN1318 BYDEMILL FARM,418678,193170,2025,2025,TH,39,HA039G18,HA039G18S0014,6.0,GB106039023710,3038.0,3504.0,EA,-1.731496,51.637032,RIVER / RUNNING SURFACE WATER,"[{'det_id': '0106', 'site_id': 'TH-RSN1318', 'det_label': 'Cd Filtered', 'det_desc': 'Cadmium, Dissolved', 'num_samples': 5, 'num_measurements': 1, 'file': 'riv_sites_det_39_106.geojson', 'mean_measurements': 0.01}]",POINT (-1.731496 51.637032),0.01
146,TH-RSN1337,RSN1337 ASHTEAD RYE MEADOWS,517438,158985,2025,2025,TH,39,HA039G12,HA039G12S0012,6.0,GB106039017610,3058.0,3277.0,EA,-0.316188,51.31786,RIVER / RUNNING SURFACE WATER,"[{'det_id': '0106', 'site_id': 'TH-RSN1337', 'det_label': 'Cd Filtered', 'det_desc': 'Cadmium, Dissolved', 'num_samples': 3, 'num_measurements': 1, 'file': 'riv_sites_det_39_106.geojson', 'mean_measurements': 0.022}]",POINT (-0.316188 51.31786),0.020833333333333332
147,TH-RSN1394,RSN1394 DS THE STRAIGHT MILE ROAD,481678,173227,2025,2025,TH,39,HA039G06,HA039G06S0006,6.0,GB106039023190,3048.0,3261.0,EA,-0.82592,51.452147,RIVER / RUNNING SURFACE WATER,"[{'det_id': '0106', 'site_id': 'TH-RSN1394', 'det_label': 'Cd Filtered', 'det_desc': 'Cadmium, Dissolved', 'num_samples': 8, 'num_measurements': 5, 'file': 'riv_sites_det_39_106.geojson', 'mean_measurements': 0.0176}]",POINT (-0.82592 51.452147),0.017666666666666667
148,TH-SSN0014,ENTON GREEN TRIB,495924,139487,2025,2025,TH,39,HA039G02,HA039G02S0005,6.0,GB106039017790,3114.0,3536.0,EA,-0.630014,51.146614,RIVER / RUNNING SURFACE WATER,"[{'det_id': '0106', 'site_id': 'TH-SSN0014', 'det_label': 'Cd Filtered', 'det_desc': 'Cadmium, Dissolved', 'num_samples': 27, 'num_measurements': 1, 'file': 'riv_sites_det_39_106.geojson', 'mean_measurements': 0.01}]",POINT (-0.630014 51.146614),0.01
149,TH-SSN0015,120M U/S FOOTPATH,438173,240793,2025,2025,TH,39,HA039G10,HA039G10S0019,6.0,GB106039037300,3012.0,3079.0,EA,-1.444569,52.064215,RIVER / RUNNING SURFACE WATER,"[{'det_id': '0106', 'site_id': 'TH-SSN0015', 'det_label': 'Cd Filtered', 'det_desc': 'Cadmium, Dissolved', 'num_samples': 29, 'num_measurements': 1, 'file': 'riv_sites_det_39_106.geojson', 'mean_measurements': 0.01}]",POINT (-1.444569 52.064215),0.01
150,TH-SSN0059,SSN0059 PEA PITS COPSE,424652,191540,2025,2025,TH,39,HA039G15,HA039G15S0004,6.0,GB106039022950,3038.0,3504.0,EA,-1.645289,51.622147,RIVER / RUNNING SURFACE WATER,"[{'det_id': '0106', 'site_id': 'TH-SSN0059', 'det_label': 'Cd Filtered', 'det_desc': 'Cadmium, Dissolved', 'num_samples': 5, 'num_measurements': 1, 'file': 'riv_sites_det_39_106.geojson', 'mean_measurements': 0.01}]",POINT (-1.645289 51.622147),0.01
151,TH-SSN0078,SSN0078 NEAR BOTTOM LOCK,505035,161784,2025,2025,TH,39,HA039G02,HA039G02S0009,6.0,GB106039017910,3114.0,3536.0,EA,-0.493273,51.345442,RIVER / RUNNING SURFACE WATER,"[{'det_id': '0106', 'site_id': 'TH-SSN0078', 'det_label': 'Cd Filtered', 'det_desc': 'Cadmium, Dissolved', 'num_samples': 5, 'num_measurements': 1, 'file': 'riv_sites_det_39_106.geojson', 'mean_measurements': 0.012}]",POINT (-0.493273 51.345442),0.012
152,TH-SSN0187,ABOVE DORN AT B4030 - BARTON BUSHES STRE,446065,225133,2025,2025,TH,39,HA039G11,HA039G11S0005,6.0,GB106039037380,3021.0,3181.0,EA,-1.331551,51.922829,RIVER / RUNNING SURFACE WATER,"[{'det_id': '0106', 'site_id': 'TH-SSN0187', 'det_label': 'Cd Filtered', 'det_desc': 'Cadmium, Dissolved', 'num_samples': 18, 'num_measurements': 1, 'file': 'riv_sites_det_39_106.geojson', 'mean_measurements': 0.01}]",POINT (-1.331551 51.922829),0.01
153,TH-SSN0203,BURSTOW PARK FARM - MOLE (THAMES),531761,147050,2025,2025,TH,39,HA039G12,HA039G12S0006,6.0,GB106039017560,3058.0,3495.0,EA,-0.115162,51.207466,RIVER / RUNNING SURFACE WATER,"[{'det_id': '0106', 'site_id': 'TH-SSN0203', 'det_label': 'Cd Filtered', 'det_desc': 'Cadmium, Dissolved', 'num_samples': 18, 'num_measurements': 1, 'file': 'riv_sites_det_39_106.geojson', 'mean_measurements': 0.011}]",POINT (-0.115162 51.207466),0.011
154,TH-SSN0251,SSN0251 DEAN WOOD,434516,222514,2025,2025,TH,39,HA039G11,HA039G11S0006,6.0,GB106039029970,3021.0,3181.0,EA,-1.499742,51.900116,RIVER / RUNNING SURFACE WATER,"[{'det_id': '0106', 'site_id': 'TH-SSN0251', 'det_label': 'Cd Filtered', 'det_desc': 'Cadmium, Dissolved', 'num_samples': 5, 'num_measurements': 1, 'file': 'riv_sites_det_39_106.geojson', 'mean_measurements': 0.01}]",POINT (-1.499742 51.900116),0.01
155,TH-SSN0900,SSN0900 AT ALNWICK FARM,488900,217734,2025,2025,TH,39,HA039G07,HA039G07S0024,6.0,GB106039030410,3098.0,3459.0,EA,-0.710706,51.851139,RIVER / RUNNING SURFACE WATER,"[{'det_id': '0106', 'site_id': 'TH-SSN0900', 'det_label': 'Cd Filtered', 'det_desc': 'Cadmium, Dissolved', 'num_samples': 7, 'num_measurements': 1, 'file': 'riv_sites_det_39_106.geojson', 'mean_measurements': 0.01}]",POINT (-0.7107059999999999 51.851139),0.01
156,TH-SSN0911,SSN0911 EGG BARN WOOD,425284,224579,2025,2025,TH,39,HA039G11,HA039G11S0009,6.0,GB106039037410,3021.0,3181.0,EA,-1.633767,51.919175,RIVER / RUNNING SURFACE WATER,"[{'det_id': '0106', 'site_id': 'TH-SSN0911', 'det_label': 'Cd Filtered', 'det_desc': 'Cadmium, Dissolved', 'num_samples': 5, 'num_measurements': 1, 'file': 'riv_sites_det_39_106.geojson', 'mean_measurements': 0.01}]",POINT (-1.633767 51.919175),0.01
157,TH-SSN0959,SSN0959 U/S ADWELL ROAD,468410,200002,2025,2025,TH,39,HA039G07,HA039G07S0004,6.0,GB106039023780,3098.0,3459.0,EA,-1.011621,51.694613,RIVER / RUNNING SURFACE WATER,"[{'det_id': '0106', 'site_id': 'TH-SSN0959', 'det_label': 'Cd Filtered', 'det_desc': 'Cadmium, Dissolved', 'num_samples': 8, 'num_measurements': 1, 'file': 'riv_sites_det_39_106.geojson', 'mean_measurements': 0.01}]",POINT (-1.011621 51.694613),0.01
158,TH-SSN1348,MILDIRDGE GREEN DRAIN BELLS LANE,501724,175648,2025,2025,TH,39,HA039G03,HA039G03S0001,6.0,GB106039023040,3017.0,3096.0,EA,-0.536825,51.470665,RIVER / RUNNING SURFACE WATER,"[{'det_id': '0106', 'site_id': 'TH-SSN1348', 'det_label': 'Cd Filtered', 'det_desc': 'Cadmium, Dissolved', 'num_samples': 17, 'num_measurements': 1, 'file': 'riv_sites_det_39_106.geojson', 'mean_measurements': 0.016}]",POINT (-0.536825 51.470665),0.016
159,TH-SSN1390,ABOVE NEWTOWN CHURCH - NEWTOWN BROOK,447501,163537,2025,2025,TH,39,HA039G04,HA039G04S0001,6.0,GB106039017310,3044.0,3242.0,EA,-1.319015,51.368914,RIVER / RUNNING SURFACE WATER,"[{'det_id': '0106', 'site_id': 'TH-SSN1390', 'det_label': 'Cd Filtered', 'det_desc': 'Cadmium, Dissolved', 'num_samples': 16, 'num_measurements': 1, 'file': 'riv_sites_det_39_106.geojson', 'mean_measurements': 0.012}]",POINT (-1.319015 51.368914),0.012
160,TH-SSN1604,SSN1604 BUTTERWICK BROOK @ GLINWELL,519310,207440,2025,2025,TH,39,HA039G13,HA039G13S0014,6.0,GB106039029820,3017.0,3096.0,EA,-0.272934,51.752961,RIVER / RUNNING SURFACE WATER,"[{'det_id': '0106', 'site_id': 'TH-SSN1604', 'det_label': 'Cd Filtered', 'det_desc': 'Cadmium, Dissolved', 'num_samples': 4, 'num_measurements': 1, 'file': 'riv_sites_det_39_106.geojson', 'mean_measurements': 0.73}]",POINT (-0.272934 51.752961),0.73
161,TH-SSN1630,SSN1630 90M D/S RAILWAY - PETTY'S BROOK,465686,155619,2025,2025,TH,39,HA039G06,HA039G06S0001,6.0,GB106039017080,3048.0,3261.0,EA,-1.059275,51.29592,RIVER / RUNNING SURFACE WATER,"[{'det_id': '0106', 'site_id': 'TH-SSN1630', 'det_label': 'Cd Filtered', 'det_desc': 'Cadmium, Dissolved', 'num_samples': 5, 'num_measurements': 1, 'file': 'riv_sites_det_39_106.geojson', 'mean_measurements': 0.027}]",POINT (-1.059275 51.29592),0.027
162,SO-E0001390,LAMPEN STREAM - ELBRIDGE HOUSE,620327,159545,2025,2025,SO,40,HA040G06,HA040G06S0008,7.0,GB107040019790,3087.0,3282.0,EA,1.158722,51.292394,RIVER / RUNNING SURFACE WATER,"[{'det_id': '0106', 'site_id': 'SO-E0001390', 'det_label': 'Cd Filtered', 'det_desc': 'Cadmium, Dissolved', 'num_samples': 81, 'num_measurements': 4, 'file': 'riv_sites_det_40_106.geojson', 'mean_measurements': 0.1}]",POINT (1.158722 51.292394),0.09999999999999999
163,SO-RSN0345,SARRE PENN TRIB AT CHISLET PARK,620545,163382,2025,2025,SO,40,HA040G08,HA040G08S0021,7.0,GB107040019620,3087.0,3423.0,EA,1.164214,51.326759,RIVER / RUNNING SURFACE WATER,"[{'det_id': '0106', 'site_id': 'SO-RSN0345', 'det_label': 'Cd Filtered', 'det_desc': 'Cadmium, Dissolved', 'num_samples': 19, 'num_measurements': 3, 'file': 'riv_sites_det_40_106.geojson', 'mean_measurements': 0.0496666666666666}]",POINT (1.164214 51.326759),0.041999999999999996
164,SO-RSN1397,RSN1397 SHUTTLESFIELD LANE,616966,142124,2025,2025,SO,40,HA040G06,HA040G06S0001,7.0,GB107040019590,3087.0,3257.0,EA,1.100063,51.137265,RIVER / RUNNING SURFACE WATER,"[{'det_id': '0106', 'site_id': 'SO-RSN1397', 'det_label': 'Cd Filtered', 'det_desc': 'Cadmium, Dissolved', 'num_samples': 4, 'num_measurements': 3, 'file': 'riv_sites_det_40_106.geojson', 'mean_measurements': 0.0103333333333333}]",POINT (1.100063 51.137265),0.0102
165,SO-SSN0055,SSN0055 ENTRYHILL WOOD,556885,132358,2025,2025,SO,40,HA040G09,HA040G09S0003,6.0,GB106040013370,3055.0,3494.0,EA,0.237831,51.069114,RIVER / RUNNING SURFACE WATER,"[{'det_id': '0106', 'site_id': 'SO-SSN0055', 'det_label': 'Cd Filtered', 'det_desc': 'Cadmium, Dissolved', 'num_samples': 5, 'num_measurements': 1, 'file': 'riv_sites_det_40_106.geojson', 'mean_measurements': 0.028}]",POINT (0.237831 51.069114),0.028
166,SO-SSN0183,BOCKINGFOLD FARM - CURTISDEN GREEN STREA,573154,139839,2025,2025,SO,40,HA040G02,HA040G02S0007,6.0,GB106040018260,3055.0,3453.0,EA,0.4734,51.131649,RIVER / RUNNING SURFACE WATER,"[{'det_id': '0106', 'site_id': 'SO-SSN0183', 'det_label': 'Cd Filtered', 'det_desc': 'Cadmium, Dissolved', 'num_samples': 21, 'num_measurements': 1, 'file': 'riv_sites_det_40_106.geojson', 'mean_measurements': 0.011}]",POINT (0.4734 51.131649),0.011
167,SO-SSN0267,SSN0267 NEW HOUSE- JUNCTION ROAD,576988,125390,2025,2025,SO,40,HA040G01,HA040G01S0008,7.0,GB107040013640,3072.0,3386.0,EA,0.521075,51.000676,RIVER / RUNNING SURFACE WATER,"[{'det_id': '0106', 'site_id': 'SO-SSN0267', 'det_label': 'Cd Filtered', 'det_desc': 'Cadmium, Dissolved', 'num_samples': 4, 'num_measurements': 1, 'file': 'riv_sites_det_40_106.geojson', 'mean_measurements': 0.026}]",POINT (0.521075 51.000676),0.026
168,SO-SSN0951,SSN0951 COPTHALL WOOD,566433,135269,2025,2025,SO,40,HA040G02,HA040G02S0002,6.0,GB106040018520,3055.0,3453.0,EA,0.375324,51.092581,RIVER / RUNNING SURFACE WATER,"[{'det_id': '0106', 'site_id': 'SO-SSN0951', 'det_label': 'Cd Filtered', 'det_desc': 'Cadmium, Dissolved', 'num_samples': 4, 'num_measurements': 1, 'file': 'riv_sites_det_40_106.geojson', 'mean_measurements': 0.034}]",POINT (0.375324 51.092581),0.034
169,SO-SSN1383,TRIB OF RIVER TILLINGHAM OFF RYE ROAD,590906,122206,2025,2025,SO,40,HA040G05,HA040G05S0010,7.0,GB107040013560,3072.0,3043.0,EA,0.717534,50.967631,RIVER / RUNNING SURFACE WATER,"[{'det_id': '0106', 'site_id': 'SO-SSN1383', 'det_label': 'Cd Filtered', 'det_desc': 'Cadmium, Dissolved', 'num_samples': 18, 'num_measurements': 1, 'file': 'riv_sites_det_40_106.geojson', 'mean_measurements': 0.01}]",POINT (0.717534 50.967631),0.01
170,SO-SSN1399,TILDEN LANE STREAM - BEULT TRIBUTARY CHA,574166,147847,2025,2025,SO,40,HA040G02,HA040G02S0014,6.0,GB106040018310,3055.0,3453.0,EA,0.491725,51.203283,RIVER / RUNNING SURFACE WATER,"[{'det_id': '0106', 'site_id': 'SO-SSN1399', 'det_label': 'Cd Filtered', 'det_desc': 'Cadmium, Dissolved', 'num_samples': 16, 'num_measurements': 1, 'file': 'riv_sites_det_40_106.geojson', 'mean_measurements': 0.017}]",POINT (0.491725 51.203283),0.017
171,SO-SSN1547,SSN1547 LANGFORDS FOOTBRIDGE,586247,117826,2025,2025,SO,40,HA040G05,HA040G05S0006,7.0,GB107040013550,3072.0,3043.0,EA,0.649018,50.92981,RIVER / RUNNING SURFACE WATER,"[{'det_id': '0106', 'site_id': 'SO-SSN1547', 'det_label': 'Cd Filtered', 'det_desc': 'Cadmium, Dissolved', 'num_samples': 5, 'num_measurements': 1, 'file': 'riv_sites_det_40_106.geojson', 'mean_measurements': 0.01}]",POINT (0.649018 50.92981),0.01
172,SO-SSN1587,SSN1587 GORE GREEN ROAD,571874,173594,2025,2025,SO,40,HA040G10,HA040G10S0001,6.0,,3055.0,3276.0,EA,0.471352,51.435274,RIVER / RUNNING SURFACE WATER,"[{'det_id': '0106', 'site_id': 'SO-SSN1587', 'det_label': 'Cd Filtered', 'det_desc': 'Cadmium, Dissolved', 'num_samples': 7, 'num_measurements': 1, 'file': 'riv_sites_det_40_106.geojson', 'mean_measurements': 0.01}]",POINT (0.471352 51.435274),0.01
173,SO-SSN0186,MINE PIT COPSE OFF VANN ROAD - LOD (TRIB,487159,128396,2025,2025,SO,41,HA041G05,HA041G05S0001,7.0,GB107041012830,3004.0,3533.0,EA,-0.757962,51.048305,RIVER / RUNNING SURFACE WATER,"[{'det_id': '0106', 'site_id': 'SO-SSN0186', 'det_label': 'Cd Filtered', 'det_desc': 'Cadmium, Dissolved', 'num_samples': 19, 'num_measurements': 1, 'file': 'riv_sites_det_41_106.geojson', 'mean_measurements': 0.014}]",POINT (-0.757962 51.048305),0.014
174,SO-SSN0250,SSN0250 NORTH HEATH COPSE HORSHAM,517825,133031,2025,2025,SO,41,HA041G02,HA041G02S0029,7.0,GB107041012910,3004.0,3486.0,EA,-0.319146,51.084502,RIVER / RUNNING SURFACE WATER,"[{'det_id': '0106', 'site_id': 'SO-SSN0250', 'det_label': 'Cd Filtered', 'det_desc': 'Cadmium, Dissolved', 'num_samples': 5, 'num_measurements': 1, 'file': 'riv_sites_det_41_106.geojson', 'mean_measurements': 0.01}]",POINT (-0.319146 51.084502),0.01
175,SO-SSN0311,SSN0311 EAST HOATHLY TRIB AT WEALD WAY,552857,115916,2025,2025,SO,41,HA041G04,HA041G04S0076,7.0,GB107041012380,3022.0,3488.0,EA,0.173469,50.922454,RIVER / RUNNING SURFACE WATER,"[{'det_id': '0106', 'site_id': 'SO-SSN0311', 'det_label': 'Cd Filtered', 'det_desc': 'Cadmium, Dissolved', 'num_samples': 8, 'num_measurements': 1, 'file': 'riv_sites_det_41_106.geojson', 'mean_measurements': 0.011}]",POINT (0.173469 50.922454),0.011
176,SO-SSN0846,SSN0846 IRON GIL,524244,126251,2025,2025,SO,41,HA041G03,HA041G03S0022,7.0,GB107041012260,3000.0,3483.0,EA,-0.229871,51.022212,RIVER / RUNNING SURFACE WATER,"[{'det_id': '0106', 'site_id': 'SO-SSN0846', 'det_label': 'Cd Filtered', 'det_desc': 'Cadmium, Dissolved', 'num_samples': 7, 'num_measurements': 1, 'file': 'riv_sites_det_41_106.geojson', 'mean_measurements': 0.028}]",POINT (-0.229871 51.022212),0.028
177,SO-SSN0890,SSN0890 SELSEY RIFE AT SEAL BAY,484589,93884,2025,2025,SO,41,HA041G04,HA041G04S0002,7.0,GB107041006580,3004.0,3534.0,EA,-0.802598,50.738406,RIVER / RUNNING SURFACE WATER,"[{'det_id': '0106', 'site_id': 'SO-SSN0890', 'det_label': 'Cd Filtered', 'det_desc': 'Cadmium, Dissolved', 'num_samples': 5, 'num_measurements': 1, 'file': 'riv_sites_det_41_106.geojson', 'mean_measurements': 0.01}]",POINT (-0.802598 50.738406),0.01
178,SO-SSN0954,SSN0954 OTTER WALK PETERSFIELD,473909,122360,2025,2025,SO,41,HA041G05,HA041G05S0003,7.0,GB107041012790,3004.0,3533.0,EA,-0.948178,50.995892,RIVER / RUNNING SURFACE WATER,"[{'det_id': '0106', 'site_id': 'SO-SSN0954', 'det_label': 'Cd Filtered', 'det_desc': 'Cadmium, Dissolved', 'num_samples': 5, 'num_measurements': 1, 'file': 'riv_sites_det_41_106.geojson', 'mean_measurements': 0.01}]",POINT (-0.948178 50.995892),0.01
179,SO-SSN1335,COSTELLS WOOD,536372,124293,2025,2025,SO,41,HA041G01,HA041G01S0023,7.0,GB107041012720,3000.0,3498.0,EA,-0.057787,51.001869,RIVER / RUNNING SURFACE WATER,"[{'det_id': '0106', 'site_id': 'SO-SSN1335', 'det_label': 'Cd Filtered', 'det_desc': 'Cadmium, Dissolved', 'num_samples': 18, 'num_measurements': 1, 'file': 'riv_sites_det_41_106.geojson', 'mean_measurements': 0.063}]",POINT (-0.057787 51.001869),0.063
180,SO-SSN1591,SSN1591 STREAM AT TANYARDS COTTAGE,530717,126621,2025,2025,SO,41,HA041G01,HA041G01S0023,7.0,GB107041012730,3000.0,3498.0,EA,-0.137496,51.024103,RIVER / RUNNING SURFACE WATER,"[{'det_id': '0106', 'site_id': 'SO-SSN1591', 'det_label': 'Cd Filtered', 'det_desc': 'Cadmium, Dissolved', 'num_samples': 5, 'num_measurements': 1, 'file': 'riv_sites_det_41_106.geojson', 'mean_measurements': 0.01}]",POINT (-0.137496 51.024103),0.01
181,SO-SSN1611,SSN1611 STREAM IN TEN ACRE WOOD,558581,115783,2025,2025,SO,41,HA041G04,HA041G04S0080,7.0,GB107041012390,3022.0,3488.0,EA,0.254786,50.919716,RIVER / RUNNING SURFACE WATER,"[{'det_id': '0106', 'site_id': 'SO-SSN1611', 'det_label': 'Cd Filtered', 'det_desc': 'Cadmium, Dissolved', 'num_samples': 6, 'num_measurements': 1, 'file': 'riv_sites_det_41_106.geojson', 'mean_measurements': 0.013}]",POINT (0.254786 50.919716),0.013
182,SO-RSN1377,RSN1377 WEST COMMON STREAM AT IMBER WAY,446250,111750,2025,2025,SO,42,HA042G02,HA042G02S0001,7.0,,3097.0,3237.0,EA,-1.343625,50.903369,RIVER / RUNNING SURFACE WATER,"[{'det_id': '0106', 'site_id': 'SO-RSN1377', 'det_label': 'Cd Filtered', 'det_desc': 'Cadmium, Dissolved', 'num_samples': 6, 'num_measurements': 5, 'file': 'riv_sites_det_42_106.geojson', 'mean_measurements': 0.0294}]",POINT (-1.343625 50.903369),0.02683333333333333
183,SO-SSN0814,SSN0814 KINGS GARN GUTTER,425229,114184,2025,2025,SO,42,HA042G01,HA042G01S0003,7.0,GB107042016380,3097.0,3284.0,EA,-1.642396,50.926555,RIVER / RUNNING SURFACE WATER,"[{'det_id': '0106', 'site_id': 'SO-SSN0814', 'det_label': 'Cd Filtered', 'det_desc': 'Cadmium, Dissolved', 'num_samples': 5, 'num_measurements': 1, 'file': 'riv_sites_det_42_106.geojson', 'mean_measurements': 0.012}]",POINT (-1.642396 50.926555),0.012
184,SO-SSN1326,DUN TRIB BENTLEY WOOD,424424,128940,2025,2025,SO,42,HA042G01,HA042G01S0010,7.0,GB107042022640,3097.0,3284.0,EA,-1.65286,51.059279,RIVER / RUNNING SURFACE WATER,"[{'det_id': '0106', 'site_id': 'SO-SSN1326', 'det_label': 'Cd Filtered', 'det_desc': 'Cadmium, Dissolved', 'num_samples': 26, 'num_measurements': 1, 'file': 'riv_sites_det_42_106.geojson', 'mean_measurements': 0.018}]",POINT (-1.65286 51.059279),0.018
185,SW-RSN0429,MUDE AT HARROW FARM,419596,97322,2025,2025,SW,43,HA043G05,HA043G05S0001,8.0,GB108043011020,3006.0,3216.0,EA,-1.723442,50.775141,RIVER / RUNNING SURFACE WATER,"[{'det_id': '0106', 'site_id': 'SW-RSN0429', 'det_label': 'Cd Filtered', 'det_desc': 'Cadmium, Dissolved', 'num_samples': 18, 'num_measurements': 4, 'file': 'riv_sites_det_43_106.geojson', 'mean_measurements': 0.01625}]",POINT (-1.723442 50.775141),0.01625
186,SW-SSN0016,HARBIN BROOK @ HARBIN FARM,368777,109158,2025,2025,SW,43,HA043G06,HA043G06S0002,8.0,GB108043015910,3030.0,3140.0,EA,-2.445189,50.881056,RIVER / RUNNING SURFACE WATER,"[{'det_id': '0106', 'site_id': 'SW-SSN0016', 'det_label': 'Cd Filtered', 'det_desc': 'Cadmium, Dissolved', 'num_samples': 25, 'num_measurements': 1, 'file': 'riv_sites_det_43_106.geojson', 'mean_measurements': 0.01}]",POINT (-2.445189 50.881056),0.01
187,SW-SSN0080,SSN0080 GARVEY HILL,370230,113966,2025,2025,SW,43,HA043G06,HA043G06S0006,8.0,GB108043015960,3030.0,3140.0,EA,-2.424929,50.924368,RIVER / RUNNING SURFACE WATER,"[{'det_id': '0106', 'site_id': 'SW-SSN0080', 'det_label': 'Cd Filtered', 'det_desc': 'Cadmium, Dissolved', 'num_samples': 10, 'num_measurements': 1, 'file': 'riv_sites_det_43_106.geojson', 'mean_measurements': 0.01}]",POINT (-2.424929 50.924368),0.01
188,SW-SSN0272,SSN0272 SANDERS COPSE,392613,123926,2025,2025,SW,43,HA043G01,HA043G01S0001,8.0,GB108043016160,3006.0,3216.0,EA,-2.106673,51.014657,RIVER / RUNNING SURFACE WATER,"[{'det_id': '0106', 'site_id': 'SW-SSN0272', 'det_label': 'Cd Filtered', 'det_desc': 'Cadmium, Dissolved', 'num_samples': 8, 'num_measurements': 1, 'file': 'riv_sites_det_43_106.geojson', 'mean_measurements': 0.074}]",POINT (-2.106673 51.014657),0.074
189,SW-SSN1552,SSN1552 HORSINGTON 50M D/S POND,370339,123887,2025,2025,SW,43,HA043G06,HA043G06S0018,8.0,GB108043015820,3030.0,3140.0,EA,-2.42419,51.013585,RIVER / RUNNING SURFACE WATER,"[{'det_id': '0106', 'site_id': 'SW-SSN1552', 'det_label': 'Cd Filtered', 'det_desc': 'Cadmium, Dissolved', 'num_samples': 6, 'num_measurements': 1, 'file': 'riv_sites_det_43_106.geojson', 'mean_measurements': 0.01}]",POINT (-2.42419 51.013585),0.01
190,SW-RSN1389,RSN1389 MILL HOUSE,377872,99327,2025,2025,SW,44,HA044G02,HA044G02S0021,8.0,GB108044010130,3030.0,3367.0,EA,-2.31531,50.793074,RIVER / RUNNING SURFACE WATER,"[{'det_id': '0106', 'site_id': 'SW-RSN1389', 'det_label': 'Cd Filtered', 'det_desc': 'Cadmium, Dissolved', 'num_samples': 5, 'num_measurements': 4, 'file': 'riv_sites_det_44_106.geojson', 'mean_measurements': 0.01}]",POINT (-2.31531 50.793074),0.01
191,SW-SSN0316,SSN0316 DOWNSTREAM OF MUTTON STREET,340337,98443,2025,2025,SW,44,HA044G03,HA044G03S0035,8.0,GB108044009790,3030.0,3528.0,EA,-2.847668,50.782467,RIVER / RUNNING SURFACE WATER,"[{'det_id': '0106', 'site_id': 'SW-SSN0316', 'det_label': 'Cd Filtered', 'det_desc': 'Cadmium, Dissolved', 'num_samples': 7, 'num_measurements': 1, 'file': 'riv_sites_det_44_106.geojson', 'mean_measurements': 0.01}]",POINT (-2.847668 50.782467),0.01
192,SW-SSN1532,SSN1532 MOREDON PARK COTTAGE,391129,93463,2025,2025,SW,44,HA044G02,HA044G02S0015,8.0,GB108044010100,3030.0,3367.0,EA,-2.127079,50.740697,RIVER / RUNNING SURFACE WATER,"[{'det_id': '0106', 'site_id': 'SW-SSN1532', 'det_label': 'Cd Filtered', 'det_desc': 'Cadmium, Dissolved', 'num_samples': 6, 'num_measurements': 1, 'file': 'riv_sites_det_44_106.geojson', 'mean_measurements': 0.016}]",POINT (-2.127079 50.740697),0.016
193,SW-RSN1307,RSN1307 EXWICK MILL LEAT EXWICK MILLS,290750,94071,2025,2025,SW,45,HA045G01,HA045G01S0019,8.0,GB108045009040,3033.0,3183.0,EA,-3.549543,50.735934,RIVER / RUNNING SURFACE WATER,"[{'det_id': '0106', 'site_id': 'SW-RSN1307', 'det_label': 'Cd Filtered', 'det_desc': 'Cadmium, Dissolved', 'num_samples': 1, 'num_measurements': 1, 'file': 'riv_sites_det_45_106.geojson', 'mean_measurements': 0.013}]",POINT (-3.549543 50.735934),0.011333333333333334
194,SW-RSN1331,RSN1331 BIG WOOD UPSTREAM TRACK BRIDGE,308062,97370,2025,2025,SW,45,HA045G03,HA045G03S0016,8.0,GB108045009200,3033.0,3405.0,EA,-3.305115,50.768596,RIVER / RUNNING SURFACE WATER,"[{'det_id': '0106', 'site_id': 'SW-RSN1331', 'det_label': 'Cd Filtered', 'det_desc': 'Cadmium, Dissolved', 'num_samples': 2, 'num_measurements': 1, 'file': 'riv_sites_det_45_106.geojson', 'mean_measurements': 0.018}]",POINT (-3.305115 50.768596),0.024333333333333332
195,SW-SSN0048,LOWER FURSDON - FURSDON STREAM,271308,94597,2025,2025,SW,45,HA045G01,HA045G01S0031,8.0,GB108045009270,3033.0,3114.0,EA,-3.825102,50.736677,RIVER / RUNNING SURFACE WATER,"[{'det_id': '0106', 'site_id': 'SW-SSN0048', 'det_label': 'Cd Filtered', 'det_desc': 'Cadmium, Dissolved', 'num_samples': 19, 'num_measurements': 1, 'file': 'riv_sites_det_45_106.geojson', 'mean_measurements': 0.04}]",POINT (-3.825102 50.736677),0.04
196,SW-SSN0064,SSN0064  PLYFORD STREAM AT PLYFORD WOOD,313992,94782,2025,2025,SW,45,HA045G03,HA045G03S0009,8.0,GB108045009160,3033.0,3405.0,EA,-3.220438,50.746238,RIVER / RUNNING SURFACE WATER,"[{'det_id': '0106', 'site_id': 'SW-SSN0064', 'det_label': 'Cd Filtered', 'det_desc': 'Cadmium, Dissolved', 'num_samples': 4, 'num_measurements': 1, 'file': 'riv_sites_det_45_106.geojson', 'mean_measurements': 0.027}]",POINT (-3.220438 50.746238),0.027
197,SW-SSN0224,SSN0224 TRIB OF EXE DURYARD,291373,94685,2025,2025,SW,45,HA045G01,HA045G01S0019,8.0,GB108045009040,3033.0,3183.0,EA,-3.540899,50.74157,RIVER / RUNNING SURFACE WATER,"[{'det_id': '0106', 'site_id': 'SW-SSN0224', 'det_label': 'Cd Filtered', 'det_desc': 'Cadmium, Dissolved', 'num_samples': 5, 'num_measurements': 1, 'file': 'riv_sites_det_45_106.geojson', 'mean_measurements': 0.025}]",POINT (-3.540899 50.74157),0.025
198,SW-SSN0304,"SSN0304 RILL STREAM, WAY FARM",298970,123960,2025,2025,SW,45,HA045G01,HA045G01S0072,8.0,GB108045014860,3033.0,3183.0,EA,-3.441365,51.006119,RIVER / RUNNING SURFACE WATER,"[{'det_id': '0106', 'site_id': 'SW-SSN0304', 'det_label': 'Cd Filtered', 'det_desc': 'Cadmium, Dissolved', 'num_samples': 4, 'num_measurements': 1, 'file': 'riv_sites_det_45_106.geojson', 'mean_measurements': 0.01}]",POINT (-3.441365 51.006119),0.01
199,SW-SSN0944,SSN0944 KNIGHTSHAYNE STREAM MARSH FARM,325508,110127,2025,2025,SW,45,HA045G02,HA045G02S0013,8.0,GB108045015130,3033.0,3253.0,EA,-3.060361,50.885801,RIVER / RUNNING SURFACE WATER,"[{'det_id': '0106', 'site_id': 'SW-SSN0944', 'det_label': 'Cd Filtered', 'det_desc': 'Cadmium, Dissolved', 'num_samples': 3, 'num_measurements': 1, 'file': 'riv_sites_det_45_106.geojson', 'mean_measurements': 0.025}]",POINT (-3.060361 50.885801),0.025
200,SW-SSN1376,COFTON CROSS,296323,80271,2025,2025,SW,45,HA045G01,HA045G01S0002,8.0,,3033.0,3114.0,EA,-3.466724,50.612896,RIVER / RUNNING SURFACE WATER,"[{'det_id': '0106', 'site_id': 'SW-SSN1376', 'det_label': 'Cd Filtered', 'det_desc': 'Cadmium, Dissolved', 'num_samples': 17, 'num_measurements': 1, 'file': 'riv_sites_det_45_106.geojson', 'mean_measurements': 0.015}]",POINT (-3.466724 50.612896),0.015
201,SW-70630221,RIVER TEIGN U/S BEADON BROOK,284218,81778,2025,2025,SW,46,HA046G02,HA046G02S0013,8.0,GB108046008540,3081.0,3451.0,EA,-3.638215,50.624165,RIVER / RUNNING SURFACE WATER,"[{'det_id': '0106', 'site_id': 'SW-70630221', 'det_label': 'Cd Filtered', 'det_desc': 'Cadmium, Dissolved', 'num_samples': 5, 'num_measurements': 5, 'file': 'riv_sites_det_46_106.geojson', 'mean_measurements': 0.136}]",POINT (-3.638215 50.624165),
202,SW-SSN0032,HIGHER BLAGDON FARM - MILL POOL STREAM,285652,61188,2025,2025,SW,46,HA046G05,HA046G05S0030,8.0,,3081.0,3123.0,EA,-3.611633,50.439352,RIVER / RUNNING SURFACE WATER,"[{'det_id': '0106', 'site_id': 'SW-SSN0032', 'det_label': 'Cd Filtered', 'det_desc': 'Cadmium, Dissolved', 'num_samples': 18, 'num_measurements': 1, 'file': 'riv_sites_det_46_106.geojson', 'mean_measurements': 0.01}]",POINT (-3.611633 50.439352),
203,SW-SSN0264,SSN0264 GAWLER BOTTOM,264050,78448,2025,2025,SW,46,HA046G01,HA046G01S0042,8.0,GB108046008420,3081.0,3123.0,EA,-3.921963,50.589879,RIVER / RUNNING SURFACE WATER,"[{'det_id': '0106', 'site_id': 'SW-SSN0264', 'det_label': 'Cd Filtered', 'det_desc': 'Cadmium, Dissolved', 'num_samples': 5, 'num_measurements': 1, 'file': 'riv_sites_det_46_106.geojson', 'mean_measurements': 0.016}]",POINT (-3.921963 50.589879),
204,SW-SSN1568,SSN1568 LEY WOOD,271789,54651,2025,2025,SW,46,HA046G03,HA046G03S0006,8.0,GB108046004940,3081.0,3022.0,EA,-3.804526,50.377725,RIVER / RUNNING SURFACE WATER,"[{'det_id': '0106', 'site_id': 'SW-SSN1568', 'det_label': 'Cd Filtered', 'det_desc': 'Cadmium, Dissolved', 'num_samples': 4, 'num_measurements': 1, 'file': 'riv_sites_det_46_106.geojson', 'mean_measurements': 0.01}]",POINT (-3.804526 50.377725),
205,SW-SSN1632,SSN1632 DICKFORD WATER AT FURSDON BARN,275241,83915,2025,2025,SW,46,HA046G02,HA046G02S0016,8.0,GB108046008320,3081.0,3451.0,EA,-3.765785,50.641521,RIVER / RUNNING SURFACE WATER,"[{'det_id': '0106', 'site_id': 'SW-SSN1632', 'det_label': 'Cd Filtered', 'det_desc': 'Cadmium, Dissolved', 'num_samples': 5, 'num_measurements': 1, 'file': 'riv_sites_det_46_106.geojson', 'mean_measurements': 0.014}]",POINT (-3.765785 50.641521),
206,SW-81251211,PORTONTOWN STREAM AT GRENOVEN WOOD,241400,74400,2025,2025,SW,47,HA047G01,HA047G01S0001,8.0,GB108047007860,3089.0,3435.0,EA,-4.239982,50.547786,RIVER / RUNNING SURFACE WATER,"[{'det_id': '0106', 'site_id': 'SW-81251211', 'det_label': 'Cd Filtered', 'det_desc': 'Cadmium, Dissolved', 'num_samples': 4, 'num_measurements': 4, 'file': 'riv_sites_det_47_106.geojson', 'mean_measurements': 0.1}]",POINT (-4.239982 50.547786),
207,SW-81251243,PORTONTOWN STM U/S COLLACOOMBE ADIT,243006,77054,2025,2025,SW,47,HA047G01,HA047G01S0001,8.0,GB108047007860,3089.0,3435.0,EA,-4.218451,50.572069,RIVER / RUNNING SURFACE WATER,"[{'det_id': '0106', 'site_id': 'SW-81251243', 'det_label': 'Cd Filtered', 'det_desc': 'Cadmium, Dissolved', 'num_samples': 3, 'num_measurements': 3, 'file': 'riv_sites_det_47_106.geojson', 'mean_measurements': 0.1}]",POINT (-4.218451 50.572069),
208,SW-81251252,WHEAL FANNY STREAM PRIOR TO PORTONTOWN,241559,73738,2025,2025,SW,47,HA047G01,HA047G01S0001,8.0,GB108047007860,3089.0,3435.0,EA,-4.237458,50.54188,RIVER / RUNNING SURFACE WATER,"[{'det_id': '0106', 'site_id': 'SW-81251252', 'det_label': 'Cd Filtered', 'det_desc': 'Cadmium, Dissolved', 'num_samples': 4, 'num_measurements': 3, 'file': 'riv_sites_det_47_106.geojson', 'mean_measurements': 0.1466666666666666}]",POINT (-4.237458 50.54188),
209,SW-SSN0008,DOETOR BROOK AT FOXHOLE MINE,254543,85159,2025,2025,SW,47,HA047G01,HA047G01S0016,8.0,GB108047007750,3089.0,3464.0,EA,-4.058815,50.647899,RIVER / RUNNING SURFACE WATER,"[{'det_id': '0106', 'site_id': 'SW-SSN0008', 'det_label': 'Cd Filtered', 'det_desc': 'Cadmium, Dissolved', 'num_samples': 23, 'num_measurements': 1, 'file': 'riv_sites_det_47_106.geojson', 'mean_measurements': 0.01}]",POINT (-4.058815 50.647899),
210,SW-SSN0024,TREMAINE STREAM AT TREBURTLE,224786,88582,2025,2025,SW,47,HA047G01,HA047G01S0026,8.0,GB108047007820,3089.0,3436.0,EA,-4.480961,50.670461,RIVER / RUNNING SURFACE WATER,"[{'det_id': '0106', 'site_id': 'SW-SSN0024', 'det_label': 'Cd Filtered', 'det_desc': 'Cadmium, Dissolved', 'num_samples': 18, 'num_measurements': 1, 'file': 'riv_sites_det_47_106.geojson', 'mean_measurements': 0.02}]",POINT (-4.480961 50.670461),
211,SW-SSN0072,SSN0072 COLLATON STREAM AT KINGFORD,250522,75227,2025,2025,SW,47,HA047G04,HA047G04S0026,8.0,GB108047007840,3089.0,3440.0,EA,-4.111652,50.557622,RIVER / RUNNING SURFACE WATER,"[{'det_id': '0106', 'site_id': 'SW-SSN0072', 'det_label': 'Cd Filtered', 'det_desc': 'Cadmium, Dissolved', 'num_samples': 5, 'num_measurements': 1, 'file': 'riv_sites_det_47_106.geojson', 'mean_measurements': 0.021}]",POINT (-4.111652 50.557622),
212,SW-SSN0244,SSN0244 BORINGDON PARK STREAM,252869,58495,2025,2025,SW,47,HA047G05,HA047G05S0008,8.0,GB108047004040,3089.0,3364.0,EA,-4.071953,50.407843,RIVER / RUNNING SURFACE WATER,"[{'det_id': '0106', 'site_id': 'SW-SSN0244', 'det_label': 'Cd Filtered', 'det_desc': 'Cadmium, Dissolved', 'num_samples': 5, 'num_measurements': 1, 'file': 'riv_sites_det_47_106.geojson', 'mean_measurements': 0.4}]",POINT (-4.071953 50.407843),
213,SW-SSN0280,SSN0280 GULLACOMBE STREAM @ POOL END,233010,75977,2025,2025,SW,47,HA047G01,HA047G01S0002,8.0,GB108047007890,3089.0,3435.0,EA,-4.359009,50.559619,RIVER / RUNNING SURFACE WATER,"[{'det_id': '0106', 'site_id': 'SW-SSN0280', 'det_label': 'Cd Filtered', 'det_desc': 'Cadmium, Dissolved', 'num_samples': 5, 'num_measurements': 1, 'file': 'riv_sites_det_47_106.geojson', 'mean_measurements': 0.016}]",POINT (-4.359009 50.559619),
214,SW-SSN0948,SSN0948 LONG BROOK AT UNDERWOOD,253121,56228,2025,2025,SW,47,HA047G05,HA047G05S0007,8.0,,3089.0,3364.0,EA,-4.067522,50.387531,RIVER / RUNNING SURFACE WATER,"[{'det_id': '0106', 'site_id': 'SW-SSN0948', 'det_label': 'Cd Filtered', 'det_desc': 'Cadmium, Dissolved', 'num_samples': 4, 'num_measurements': 1, 'file': 'riv_sites_det_47_106.geojson', 'mean_measurements': 0.01}]",POINT (-4.067522 50.387531),
215,SW-SSN1544,SSN1544 ST GILES CHURCH STREAM,235743,91031,2025,2025,SW,47,HA047G01,HA047G01S0027,8.0,GB108047008030,3089.0,3436.0,EA,-4.327128,50.695662,RIVER / RUNNING SURFACE WATER,"[{'det_id': '0106', 'site_id': 'SW-SSN1544', 'det_label': 'Cd Filtered', 'det_desc': 'Cadmium, Dissolved', 'num_samples': 5, 'num_measurements': 1, 'file': 'riv_sites_det_47_106.geojson', 'mean_measurements': 0.037}]",POINT (-4.327128 50.695662),
216,SW-SSN1572,SSN1572 HOLLACOMBE STREAM AT WHITECROFT,238015,101430,2025,2025,SW,47,HA047G01,HA047G01S0040,8.0,GB108047008060,3089.0,3436.0,EA,-4.299559,50.78974,RIVER / RUNNING SURFACE WATER,"[{'det_id': '0106', 'site_id': 'SW-SSN1572', 'det_label': 'Cd Filtered', 'det_desc': 'Cadmium, Dissolved', 'num_samples': 5, 'num_measurements': 1, 'file': 'riv_sites_det_47_106.geojson', 'mean_measurements': 0.01}]",POINT (-4.299559 50.78974),
217,SW-81919999,MISCELLANEOUS HELFORD AND CARRICK ROADS,176977,31314,2025,2025,SW,48,HA048G03,HA048G03S0041,8.0,,3113.0,3094.0,EA,-5.122572,50.139855,RIVER / RUNNING SURFACE WATER,"[{'det_id': '0106', 'site_id': 'SW-81919999', 'det_label': 'Cd Filtered', 'det_desc': 'Cadmium, Dissolved', 'num_samples': 341, 'num_measurements': 1, 'file': 'riv_sites_det_48_106.geojson', 'mean_measurements': 0.1}]",POINT (-5.122572 50.139855),
218,SW-RSN1395,RSN1395 ST KEVERNE STREAM AT TREGONNING,179100,21522,2025,2025,SW,48,HA048G03,HA048G03S0014,8.0,,3113.0,3094.0,EA,-5.087246,50.052712,RIVER / RUNNING SURFACE WATER,"[{'det_id': '0106', 'site_id': 'SW-RSN1395', 'det_label': 'Cd Filtered', 'det_desc': 'Cadmium, Dissolved', 'num_samples': 6, 'num_measurements': 4, 'file': 'riv_sites_det_48_106.geojson', 'mean_measurements': 0.01}]",POINT (-5.087246 50.052712),
219,SW-RSN1403,RSN1403 GWINDRA STREAM AT GWINDRA,194970,53045,2025,2025,SW,48,HA048G01,HA048G01S0013,8.0,GB108048001350,3113.0,3184.0,EA,-4.882868,50.34154,RIVER / RUNNING SURFACE WATER,"[{'det_id': '0106', 'site_id': 'SW-RSN1403', 'det_label': 'Cd Filtered', 'det_desc': 'Cadmium, Dissolved', 'num_samples': 6, 'num_measurements': 5, 'file': 'riv_sites_det_48_106.geojson', 'mean_measurements': 0.0338}]",POINT (-4.882868 50.34154),
220,SW-SSN0180,TALLAND STREAM AT WALDEN - TALLAND STREA,222788,52230,2025,2025,SW,48,HA048G03,HA048G03S0067,8.0,,3061.0,3395.0,EA,-4.49195,50.343247,RIVER / RUNNING SURFACE WATER,"[{'det_id': '0106', 'site_id': 'SW-SSN0180', 'det_label': 'Cd Filtered', 'det_desc': 'Cadmium, Dissolved', 'num_samples': 17, 'num_measurements': 1, 'file': 'riv_sites_det_48_106.geojson', 'mean_measurements': 0.01}]",POINT (-4.49195 50.343247),
221,SW-SSN0200,COLESLOGGETT STREAM AT POLVENTON,210105,65780,2025,2025,SW,48,HA048G02,HA048G02S0009,8.0,GB108048001450,3061.0,3192.0,EA,-4.676854,50.46102,RIVER / RUNNING SURFACE WATER,"[{'det_id': '0106', 'site_id': 'SW-SSN0200', 'det_label': 'Cd Filtered', 'det_desc': 'Cadmium, Dissolved', 'num_samples': 21, 'num_measurements': 1, 'file': 'riv_sites_det_48_106.geojson', 'mean_measurements': 0.039}]",POINT (-4.676854 50.46102),
222,SW-SSN0904,SSN0904 HOLLYCOMBE STREAM @ PENADLAKE,213643,64290,2025,2025,SW,48,HA048G02,HA048G02S0009,8.0,GB108048001420,3061.0,3192.0,EA,-4.626321,50.44877,RIVER / RUNNING SURFACE WATER,"[{'det_id': '0106', 'site_id': 'SW-SSN0904', 'det_label': 'Cd Filtered', 'det_desc': 'Cadmium, Dissolved', 'num_samples': 5, 'num_measurements': 1, 'file': 'riv_sites_det_48_106.geojson', 'mean_measurements': 0.03}]",POINT (-4.626321 50.44877),
223,SW-SSN1588,SSN1588 TREGIDDEN STREAM AT TREGIDDEN,175067,22642,2025,2025,SW,48,HA048G03,HA048G03S0023,8.0,GB108048001750,3113.0,3094.0,EA,-5.144155,50.061259,RIVER / RUNNING SURFACE WATER,"[{'det_id': '0106', 'site_id': 'SW-SSN1588', 'det_label': 'Cd Filtered', 'det_desc': 'Cadmium, Dissolved', 'num_samples': 5, 'num_measurements': 1, 'file': 'riv_sites_det_48_106.geojson', 'mean_measurements': 0.01}]",POINT (-5.144155 50.061259),
224,SW-82410751,GOONWINNOW TRIB OF E WHEAL ROSE STREAM,183856,55725,2025,2025,SW,49,HA049G02,HA049G02S0032,8.0,GB108049000210,3061.0,3196.0,EA,-5.040375,50.361635,RIVER / RUNNING SURFACE WATER,"[{'det_id': '0106', 'site_id': 'SW-82410751', 'det_label': 'Cd Filtered', 'det_desc': 'Cadmium, Dissolved', 'num_samples': 2, 'num_measurements': 2, 'file': 'riv_sites_det_49_106.geojson', 'mean_measurements': 0.1}]",POINT (-5.040375 50.361635),
225,SW-RSN1335,RSN1335 ROSEWORTHY STREAM AT BOSPEBO,160565,41175,2025,2025,SW,49,HA049G02,HA049G02S0022,8.0,GB108049000560,3113.0,3221.0,EA,-5.358063,50.221993,RIVER / RUNNING SURFACE WATER,"[{'det_id': '0106', 'site_id': 'SW-RSN1335', 'det_label': 'Cd Filtered', 'det_desc': 'Cadmium, Dissolved', 'num_samples': 1, 'num_measurements': 1, 'file': 'riv_sites_det_49_106.geojson', 'mean_measurements': 0.2}]",POINT (-5.358063 50.221993),
226,SW-SSN0052,SSN0052 LANVEAN STREAM AT TREVILLEDOR,188443,67689,2025,2025,SW,49,HA049G02,HA049G02S0038,8.0,GB108049000070,3061.0,3196.0,EA,-4.982719,50.470751,RIVER / RUNNING SURFACE WATER,"[{'det_id': '0106', 'site_id': 'SW-SSN0052', 'det_label': 'Cd Filtered', 'det_desc': 'Cadmium, Dissolved', 'num_samples': 3, 'num_measurements': 1, 'file': 'riv_sites_det_49_106.geojson', 'mean_measurements': 0.019}]",POINT (-4.982719 50.470751),
227,SW-SSN1556,SSN1556 HOUNDAPITT STREAM AT BETHAMS,220843,109818,2025,2025,SW,49,HA049G02,HA049G02S0069,8.0,,3061.0,3426.0,EA,-4.547047,50.860042,RIVER / RUNNING SURFACE WATER,"[{'det_id': '0106', 'site_id': 'SW-SSN1556', 'det_label': 'Cd Filtered', 'det_desc': 'Cadmium, Dissolved', 'num_samples': 5, 'num_measurements': 1, 'file': 'riv_sites_det_49_106.geojson', 'mean_measurements': 0.01}]",POINT (-4.547047 50.860042),
